"시군구명","어린이집코드","어린이집명","어린이집유형","운영현황","우편번호","상세주소","전화번호","팩스번호","홈페이지주소","보육실수","보육실 면적","놀이터수","CCTV총설치수","보육교직원수","정원","현원","시설 위도(좌표값)","시설 경도(좌표값)","통학차량운영여부","인가일자","휴지시작일자","휴지종료일자","폐지일자","데이터기준일자","제공서비스","반수-만0세","반수-만1세","반수-만2세","반수-만3세","반수-만4세","반수-만5세","반수-영아혼합(만0~2세)","반수-유아혼합(만3~5세)","반수-특수장애","반수-총계","아동수-만0세","아동수-만1세","아동수-만2세","아동수-만3세","아동수-만4세","아동수-만5세","아동수-영아혼합(만0~2세)","아동수-유아혼합(만3~5세)","아동수-특수장애","아동수-총계","근속년수-1년미만","근속년수-1년이상~2년미만","근속년수-2년이상~4년미만","근속년수-4년이상~6년미만","근속년수-6년이상","교직원현황-원장","교직원현황-보육교사","교직원현황-특수교사","교직원현황-치료교사","교직원현황-영양사","교직원현황-간호사","교직원현황-간호조무사","교직원현황-조리원","교직원현황-사무직원","교직원현황-총계","데이터수집일"
"구로구","11530000645","구로행복어린이집","직장","정상","08362","서울특별시 구로구 부광로 88 1층","02-6341-2331","02-6341-2333","https://www.puruni.com/skecoplant","3","165","1","13","4","49","5","37.47726864014455","126.81682778984279","미운영","2021-10-01","","","","2021-11-17","일반","0","2","0","0","0","0","0","0","0","2","0","5","0","0","0","0","0","0","0","5","0","0","0","0","0","1","2","0","0","0","0","0","1","0","4","2021-11-17 22:03:54.0"
"구로구","11530000644","비룡어린이집","국공립","정상","08245","서울특별시 구로구 고척로33길 43","02-2619-9933","02-2619-9965","서울시 보육포털서비스 비룡어린이집","6","328","2","12","11","76","64","37.50441547753706","126.84826724796043","미운영","2021-09-01","","","","2021-11-17","야간연장","0","0","2","1","1","1","0","0","0","5","0","0","14","14","19","17","0","0","0","64","0","0","0","0","0","1","8","0","0","0","0","0","1","0","11","2021-11-17 22:03:55.0"
"구로구","11530000643","원진어린이집","국공립","정상","08241","서울특별시 구로구 고척로55길 21 (고척동 원진어린이집)","02-2684-7444","02-2625-1608","wonjin7475","9","598","5","16","11","79","71","37.50580780267555","126.85567519505748","미운영","2021-05-01","","","","2021-11-17","일반","0","1","1","1","1","1","1","0","0","6","0","5","7","15","20","19","5","0","0","71","0","0","0","0","0","1","8","0","0","0","0","0","1","0","11","2021-11-17 22:03:55.0"
"구로구","11530000641","꿈동산어린이집","국공립","정상","08328","서울특별시 구로구 남부순환로95길 16 101동 101호(개봉동 삼호아파트)","02-2618-9382","","","3","85","0","4","9","19","19","37.49407618165247","126.85896580226314","미운영","2021-03-01","","","","2021-11-17","야간연장","1","3","1","0","0","0","2","0","0","7","3","10","6","0","0","0","0","0","0","19","0","0","0","0","0","1","7","0","0","0","0","0","1","0","9","2021-11-17 22:03:54.0"
"구로구","11530000642","현대열린어린이집","국공립","정상","08329","서울특별시 구로구 개봉로20길 6 현대아파트 1단지내(개봉역입구쪽)","02-6091-1004","","","5","164","1","10","13","62","62","37.49308490126599","126.85882066339077","미운영","2021-03-01","","","","2021-11-17","야간연장","0","1","2","1","1","0","0","1","0","6","0","5","13","13","13","0","0","18","0","62","1","0","0","0","0","1","10","0","0","0","0","0","1","0","13","2021-11-17 22:03:56.0"
"구로구","11530000639","푸르니어린이집","국공립","정상","08211","서울특별시 구로구 신도림로 16 302동 104호","02-2633-3389","","http://cafe.daum.net/puruni79","4","60","0","5","7","19","19","37.50598445334374","126.8807601177545","미운영","2021-01-01","","","","2021-11-17","일반","2","5","2","0","0","0","2","0","0","11","3","9","7","0","0","0","0","0","0","19","0","0","0","0","0","1","5","0","0","0","0","0","1","0","7","2021-11-17 22:03:55.0"
"구로구","11530000640","하영어린이집","국공립","정상","08211","서울특별시 구로구 신도림로 16 406동102호","02-2672-3331","","","4","60","0","5","8","20","20","37.50574820552755","126.87991084307384","","2021-01-01","","","","2021-11-17","일반","2","2","1","0","0","0","1","0","0","6","4","8","6","0","0","0","2","0","0","20","0","0","0","0","0","1","6","0","0","0","0","0","1","0","8","2021-11-17 22:03:55.0"
"구로구","11530000638","보배사랑어린이집","국공립","정상","08218","서울특별시 구로구 중앙로12길 7 101동 101호","02-2619-3377","02-2619-3377","","3","84","0","4","7","19","19","37.505720170148884","126.86149991896883","미운영","2020-12-01","","","","2021-11-17","일반","1","2","1","0","0","0","2","0","0","6","3","5","5","0","0","0","6","0","0","19","0","0","0","0","0","1","5","0","0","0","0","0","1","0","7","2021-11-17 22:03:55.0"
"구로구","11530000637","별하어린이집","국공립","정상","08368","서울특별시 구로구 항동로 68 하버라인9단지 관리동 내","02-2682-0996","02-2682-0995","","4","166","2","7","9","49","47","37.480237703654495","126.82592750041213","미운영","2020-08-18","","","","2021-11-17","일반","0","0","2","1","0","0","0","1","0","4","0","0","14","15","0","0","0","18","0","47","0","0","0","0","0","1","7","0","0","0","0","0","1","0","9","2021-11-17 22:03:55.0"
"구로구","11530000636","해바라기어린이집","국공립","정상","08368","서울특별시 구로구 항동로 8 관리동","02-2060-5887","","","4","130","2","6","10","45","45","37.47697263973236","126.82063280511778","미운영","2020-07-23","","","","2021-11-17","야간연장","0","0","1","1","1","1","0","0","0","4","0","0","7","9","16","13","0","0","0","45","0","0","0","0","0","1","7","0","0","0","0","0","1","0","10","2021-11-17 22:03:55.0"
"구로구","11530000635","참누리어린이집","국공립","정상","08274","서울특별시 구로구 경인로 302 관리동 (개봉동개봉역센트레빌레우스 임대아파트)","02-2612-2021","02-2612-2022","","7","259","2","19","19","94","83","37.566470","126.977963","미운영","2020-07-22","","","","2021-11-17","일반","5","3","4","2","0","0","0","1","0","15","15","15","14","27","0","0","0","12","0","83","1","0","0","0","0","1","16","0","0","0","0","0","1","0","19","2021-11-17 22:03:55.0"
"구로구","11530000634","날아라어린이집","국공립","정상","08362","서울특별시 구로구 부광로 96-16","02-2066-7114","02-2066-7115","https://iseoul.seoul.go.kr/portal/mainCall.do","5","118","1","10","11","30","30","37.475735191171125","126.81571230878866","미운영","2020-06-01","","","","2021-11-17","야간연장","4","2","1","1","0","0","1","0","0","9","9","9","7","0","0","0","5","0","0","30","0","0","0","0","0","1","9","0","0","0","0","0","1","0","11","2021-11-17 22:03:54.0"
"구로구","11530000633","엔젤어린이집","국공립","정상","08371","서울특별시 구로구 디지털로31길 90 108동 103호","02-838-6157","","","3","86","2","5","8","20","20","37.566470","126.977963","미운영","2020-04-01","","","","2021-11-17","일반","2","2","1","0","0","0","0","0","0","5","6","7","7","0","0","0","0","0","0","20","0","0","0","0","0","1","6","0","0","0","0","0","1","0","8","2021-11-17 22:03:55.0"
"구로구","11530000632","새빛어린이집","국공립","정상","08362","서울특별시 구로구 연동로 233","02-2688-3688","02-2689-3688","","4","141","1","15","12","44","39","37.480522856569365","126.82079390945905","미운영","2020-01-31","","","","2021-11-17","일반","2","2","2","1","0","0","0","0","0","7","6","10","14","9","0","0","0","0","0","39","0","0","0","0","0","1","9","0","0","0","0","0","1","0","12","2021-11-17 22:03:55.0"
"구로구","11530000631","항동하랑어린이집","국공립","정상","08368","서울특별시 구로구 항동로 42","02-2612-0081","02-2612-0087","","4","285","3","9","11","69","69","37.47820771030077","126.82560717140872","미운영","2020-01-22","","","","2021-11-17","야간연장","0","0","2","1","1","1","0","0","0","5","0","0","14","15","20","20","0","0","0","69","0","0","0","0","0","1","8","0","0","0","0","0","1","0","11","2021-11-17 22:03:55.0"
"구로구","11530000627","햇살어린이집","국공립","정상","08219","서울특별시 구로구 경인로47다길 34-7 우성꿈동산 아파트 우성상가(고척동)","02-2611-7618","02-6737-7618","","6","400","1","16","16","94","88","37.50344356243832","126.86599681274583","미운영","2019-08-01","","","","2021-11-17","장애아통합야간연장","0","2","4","1","0","1","0","1","1","10","0","9","23","14","0","20","0","19","3","88","0","0","0","0","0","1","13","0","0","0","0","0","2","0","16","2021-11-17 22:03:55.0"
"구로구","11530000629","늘사랑어린이집","국공립","정상","08206","서울특별시 구로구 구로중앙로40길 24","02-3667-1235","","","5","250","1","15","11","50","50","37.506710798042974","126.87737162711771","미운영","2019-07-26","","","","2021-11-17","장애아통합","1","2","2","1","0","0","0","1","0","7","3","5","13","10","0","0","0","19","0","50","0","0","0","0","0","1","8","0","0","0","0","0","1","0","11","2021-11-17 22:03:54.0"
"구로구","11530000628","꽃망울어린이집","국공립","정상","08368","서울특별시 구로구 항동로 72 관리동(항동 하버라인 4단지)","02-2618-1007","02-2618-1008","","7","261","3","10","18","55","53","37.48108090833357","126.82644562479552","미운영","2019-07-25","","","","2021-11-17","야간연장","4","3","3","1","0","0","0","1","0","12","12","15","19","0","0","0","0","7","0","53","1","0","0","0","0","1","15","0","0","0","0","0","1","0","18","2021-11-17 22:03:54.0"
"구로구","11530000630","자연숲어린이집","국공립","정상","08362","서울특별시 구로구 연동로 234 관리동(항동 하버라인 2단지)","02-2688-2611","","","5","269","2","9","14","77","77","37.482223478892244","126.82226531586894","미운영","2019-07-25","","","","2021-11-17","장애아통합","0","2","2","1","1","1","0","0","0","7","0","10","14","15","18","20","0","0","0","77","0","0","0","0","0","1","11","0","0","0","0","0","1","0","14","2021-11-17 22:03:55.0"
"구로구","11530000626","예크어린이집","국공립","정상","08330","서울특별시 구로구 개봉로20길 158 현대홈타운 2단지아파트 관리동 1층","070-4200-0713","","","4","112","1","4","9","26","26","37.566470","126.977963","미운영","2019-06-01","","","","2021-11-17","일반","1","2","2","0","0","0","1","0","0","6","3","10","13","0","0","0","0","0","0","26","0","0","0","0","0","1","7","0","0","0","0","0","1","0","9","2021-11-17 22:03:55.0"
"구로구","11530000625","느티나무어린이집","국공립","정상","08368","서울특별시 구로구 항동로 43 1층 관리동","02-2060-2010","02-2060-2226","","8","573","2","28","20","128","110","37.47795481636066","126.82367732356282","미운영","2019-04-29","","","","2021-11-17","일반","3","2","2","1","2","2","0","0","0","12","9","10","14","15","29","33","0","0","0","110","1","0","0","0","0","1","16","0","0","1","0","0","2","0","21","2021-11-17 22:03:54.0"
"구로구","11530000624","꿈나무어린이집","국공립","정상","08325","서울특별시 구로구 구일로4길 46 204동 105호(구로동현대연예인아파트)","02-838-3934","","","3","54","1","5","5","19","9","37.566470","126.977963","미운영","2019-04-01","","","","2021-11-17","야간연장","2","0","1","0","0","0","3","0","0","6","4","0","0","0","0","0","5","0","0","9","0","0","0","0","0","1","3","0","0","0","0","0","1","0","5","2021-11-17 22:03:54.0"
"구로구","11530000623","푸르지오아이숲어린이집","국공립","정상","08240","서울특별시 구로구 중앙로 121 고척파크푸르지오 관리동","02-2613-9280","02-2617-9280","","4","101","1","7","8","23","20","37.50769407914164","126.85736383934905","미운영","2019-04-01","","","","2021-11-17","일반","3","1","1","0","0","0","0","0","0","5","9","5","6","0","0","0","0","0","0","20","0","0","0","0","0","1","6","0","0","0","0","0","1","0","8","2021-11-17 22:03:55.0"
"구로구","11530000622","해오름어린이집","국공립","정상","08289","서울특별시 구로구 공원로6가길 67 3동 102호(구로동구로우성아파트)","02-857-5110","02-857-5110","","3","60","0","4","8","19","17","37.50479460408028","126.88948742780278","미운영","2019-03-01","","","","2021-11-17","일반","3","2","1","0","0","0","2","0","0","8","6","6","5","0","0","0","0","0","0","17","0","0","0","0","0","1","6","0","0","0","0","0","1","0","8","2021-11-17 22:03:55.0"
"구로구","11530000620","우방어린이집","국공립","정상","08323","서울특별시 구로구 구일로 154-17 101동 101호","02-858-0506","","","3","60","0","3","7","19","19","37.49799974015833","126.8746633148037","미운영","2019-03-01","","","","2021-11-17","일반","1","3","1","0","0","0","0","0","0","5","3","10","6","0","0","0","0","0","0","19","0","0","0","0","0","1","5","0","0","0","0","0","1","0","7","2021-11-17 22:03:55.0"
"구로구","11530000621","한진예닮어린이집","국공립","정상","08354","서울특별시 구로구 개봉로3길 87 101동 101호(개봉동한진타운아파트)","02-2613-3990","","","4","60","0","4","7","19","19","37.485614922222624","126.85097085309893","미운영","2019-03-01","","","","2021-11-17","일반","2","1","0","0","0","0","2","0","0","5","6","5","0","0","0","0","8","0","0","19","0","0","0","0","0","1","5","0","0","0","0","0","1","0","7","2021-11-17 22:03:55.0"
"구로구","11530000618","하늘샘어린이집","국공립","정상","08332","서울특별시 구로구 개봉로18길 17","02-2615-8825","02-6405-8825","","5","223","1","12","13","52","42","37.4914214862983","126.85700467453276","미운영","2019-03-01","","","","2021-11-17","일반","2","2","2","0","0","0","0","1","0","7","6","10","14","0","0","0","0","12","0","42","0","0","0","0","0","1","10","0","0","0","0","0","1","0","13","2021-11-17 22:03:55.0"
"구로구","11530000619","해가람어린이집","국공립","정상","08201","서울특별시 구로구 신도림로21길 25 301동 106호","02-2675-8330","","","4","51","0","7","7","19","19","37.513042936556815","126.8844023175487","미운영","2019-03-01","","","","2021-11-17","일반","0","0","1","0","0","0","5","0","0","6","0","0","0","0","0","0","19","0","0","19","0","0","0","0","0","1","5","0","0","0","0","0","1","0","7","2021-11-17 22:03:55.0"
"구로구","11530000617","항동라온어린이집","국공립","정상","08368","서울특별시 구로구 서해안로 2036 803동 1층","02-2066-5700","02-2066-2800","","4","150","0","9","10","42","39","37.47461172436583","126.81751258150562","미운영","2019-01-17","","","","2021-11-17","야간연장","2","2","2","1","0","0","0","0","0","7","6","10","14","9","0","0","0","0","0","39","0","0","0","0","0","1","8","0","0","0","0","0","1","0","10","2021-11-17 22:03:55.0"
"구로구","11530000616","하늘빛어린이집","국공립","정상","08228","서울특별시 구로구 고척로52나길 25 1층 어린이집","02-2685-1324","02-2686-1324","","4","180","0","9","11","49","46","37.5051277907","126.8573616533","미운영","2018-12-13","","","","2021-11-17","야간연장","0","1","2","1","0","0","0","1","0","5","0","5","13","12","0","0","0","16","0","46","0","0","0","0","0","1","8","0","0","0","0","0","1","0","11","2021-11-17 22:03:55.0"
"구로구","11530000615","해봄어린이집","국공립","정상","08366","서울특별시 구로구 금오로 882 어린이집","02-2689-7879","","","4","148","0","7","9","30","23","37.4760025474","126.8423176204","미운영","2018-12-07","","","","2021-11-17","야간연장","2","2","1","0","0","0","0","0","0","5","6","10","7","0","0","0","0","0","0","23","0","0","0","0","0","1","7","0","0","0","0","0","1","0","9","2021-11-17 22:03:55.0"
"구로구","11530000614","경선어린이집","국공립","정상","08329","서울특별시 구로구 개봉로20길 6 118동 102호","02-6095-5915","","","3","63","0","4","7","20","19","37.4928800523","126.8593072878","미운영","2018-09-01","","","","2021-11-17","일반","1","2","1","0","0","0","4","0","0","8","3","4","5","0","0","0","7","0","0","19","0","0","0","0","0","1","5","0","0","0","0","0","1","0","7","2021-11-17 22:03:54.0"
"구로구","11530000612","사과나무어린이집","국공립","정상","08330","서울특별시 구로구 개봉로20길 158 204동 102호","02-2066-2564","","","3","63","0","6","8","20","19","37.4920420095","126.8607381598","미운영","2018-03-01","","","","2021-11-17","일반","1","2","2","0","0","0","0","0","0","5","3","8","8","0","0","0","0","0","0","19","0","0","0","0","0","1","6","0","0","0","0","0","1","0","8","2021-11-17 22:03:55.0"
"구로구","11530000613","블루밍서연어린이집","국공립","정상","08228","서울특별시 구로구 고척로60길 30 고척벽산베스트블루밍 아파트 관리동 1층","02-2686-4333","02-2683-4333","","4","102","0","7","8","23","23","37.5051511052","126.8587685394","미운영","2018-03-01","","","","2021-11-17","일반","2","1","2","0","0","0","0","0","0","5","6","5","12","0","0","0","0","0","0","23","0","0","0","0","0","1","6","0","0","0","0","0","1","0","8","2021-11-17 22:03:55.0"
"구로구","11530000611","이화우성어린이집","국공립","정상","08369","서울특별시 구로구 도림로22길 8 101동 110호","02-859-5152","02-859-5153","","3","68","0","4","7","20","16","37.4901477076","126.8932529137","미운영","2018-03-01","","","","2021-11-17","일반","1","2","1","0","0","0","2","0","0","6","3","4","6","0","0","0","3","0","0","16","0","0","0","0","0","1","5","0","0","0","0","0","1","0","7","2021-11-17 22:03:55.0"
"구로구","11530000608","파란나라어린이집","국공립","정상","08227","서울특별시 구로구 중앙로1길 18-19 103동 105호","02-2619-4501","0504-206-2224","","3","60","0","5","7","17","17","37.4985789254","126.8631506148","미운영","2018-03-01","","","","2021-11-17","일반","3","2","2","0","0","0","0","0","0","7","7","5","5","0","0","0","0","0","0","17","0","0","0","0","0","1","5","0","0","0","0","0","1","0","7","2021-11-17 22:03:55.0"
"구로구","11530000607","하늘어린이집","국공립","정상","08329","서울특별시 구로구 개봉로20길 6 124동 104호","02-2066-7749","050-4047-8354","","3","65","0","5","9","20","20","37.49135189710704","126.85813698555301","미운영","2018-03-01","","","","2021-11-17","야간연장","3","2","1","0","0","0","1","0","0","7","6","8","6","0","0","0","0","0","0","20","0","0","0","0","0","1","7","0","0","0","0","0","1","0","9","2021-11-17 22:03:55.0"
"구로구","11530000609","두산어린이집","국공립","정상","08313","서울특별시 구로구 도림로 59 105동 102호(구로동구로두산아파트)","02-6735-9267","02-839-2020","","3","73","0","4","8","20","20","37.4898986777","126.8889609663","미운영","2018-03-01","","","","2021-11-17","야간연장","2","3","1","0","0","0","0","0","0","6","6","8","6","0","0","0","0","0","0","20","0","0","0","0","0","1","6","0","0","0","0","0","1","0","8","2021-11-17 22:03:55.0"
"구로구","11530000610","사랑별어린이집","국공립","정상","08320","서울특별시 구로구 구로동로8길 30-1","02-858-8010","02-858-8015","","4","122","0","5","11","46","46","37.4870528338","126.8865771392","미운영","2018-03-01","","","","2021-11-17","야간연장","0","2","2","1","0","0","0","1","0","6","0","10","9","12","0","0","0","15","0","46","0","0","0","0","0","1","8","0","0","0","0","0","1","0","11","2021-11-17 22:03:55.0"
"구로구","11530000606","오류동행복주택어린이집","국공립","정상","08272","서울특별시 구로구 경인로20가길 38 1층","02-2088-5752","02-2135-5752","","6","320","1","14","15","76","74","37.4939419533","126.8412305271","미운영","2018-01-02","","","","2021-11-17","일반","2","2","2","1","1","1","0","0","0","9","5","10","14","14","12","19","0","0","0","74","0","0","0","0","0","1","12","0","0","0","0","0","1","0","15","2021-11-17 22:03:55.0"
"구로구","11530000604","키즈극동어린이집","국공립","정상","08312","서울특별시 구로구 구로중앙로7길 28 1동 101호(구로동 극동아파트)","02-6347-5001","02-6091-7725","","3","60","0","5","6","19","15","37.4912796333","126.8896147652","미운영","2017-09-01","","","","2021-11-17","일반","1","1","0","0","0","0","4","0","0","6","2","5","0","0","0","0","8","0","0","15","0","0","0","0","0","1","4","0","0","0","0","0","1","0","6","2021-11-17 22:03:55.0"
"구로구","11530000605","꿈사랑어린이집","국공립","정상","08276","서울특별시 구로구 경인로40길 11 101동 104호","02-6734-4757","0504-082-4753","","3","56","0","6","7","20","20","37.4960553367","126.8594234615","미운영","2017-08-28","","","","2021-11-17","야간연장","0","3","2","0","0","0","0","0","0","5","0","10","10","0","0","0","0","0","0","20","0","0","0","0","0","1","5","0","0","0","0","0","1","0","7","2021-11-17 22:03:54.0"
"구로구","11530000603","경남큰사랑어린이집","국공립","정상","08342","서울특별시 구로구 오류로 65 105동 101호(오류동 경남아너스빌)","02-2066-2081","","","3","68","0","5","8","20","20","37.4906463706","126.8401157948","미운영","2017-08-28","","","","2021-11-17","일반","1","3","2","0","0","0","1","0","0","7","2","9","9","0","0","0","0","0","0","20","0","0","0","0","0","1","6","0","0","0","0","0","1","0","8","2021-11-17 22:03:54.0"
"구로구","11530000602","구로구청 사랑채움 어린이집","직장","정상","08284","서울특별시 구로구 가마산로 245","02-858-2046","","","8","239","1","21","15","84","54","37.4958299113","126.8879072957","미운영","2017-03-03","","","","2021-11-17","일반","3","3","2","1","1","1","0","0","0","11","6","10","12","8","13","5","0","0","0","54","0","0","0","0","0","1","12","0","0","0","0","0","1","0","15","2021-11-17 22:03:54.0"
"구로구","11530000601","사랑가득어린이집","국공립","정상","08202","서울특별시 구로구 신도림로 87 103동 101호","02-2689-1342","","","3","65","0","5","7","20","20","37.5109612823","126.8822384152","미운영","2017-03-01","","","","2021-11-17","일반","1","1","1","0","0","0","4","0","0","7","3","4","7","0","0","0","6","0","0","20","0","0","0","0","0","1","5","0","0","0","0","0","1","0","7","2021-11-17 22:03:55.0"
"구로구","11530000599","초롱어린이집","국공립","정상","08329","서울특별시 구로구 개봉로20길 6 116동 101호","02-2066-2753","02-2066-2753","","3","61","0","5","8","20","20","37.49295250153397","126.85829650918303","미운영","2017-03-01","","","","2021-11-17","일반","2","3","2","0","0","0","0","0","0","7","4","10","6","0","0","0","0","0","0","20","0","0","0","0","0","1","6","0","0","0","0","0","1","0","8","2021-11-17 22:03:55.0"
"구로구","11530000600","행복한아이어린이집","국공립","정상","08329","서울특별시 구로구 개봉로20길 6 105동 103호(개봉동 현대아파트)","02-2616-2473","02-2616-2473","http://cafe.naver.com/0226162473","3","61","0","4","8","20","20","37.4928800523","126.8593072878","미운영","2017-03-01","","","","2021-11-17","일반","2","2","2","0","0","0","0","0","0","6","3","8","9","0","0","0","0","0","0","20","0","0","0","0","0","1","6","0","0","0","0","0","1","0","8","2021-11-17 22:03:56.0"
"구로구","11530000598","한사랑어린이집","국공립","정상","08354","서울특별시 구로구 개봉로3길 87 110동 103호","02-6741-2270","02-6741-2270","hdjang01@nate.com","3","59","0","4","8","20","19","37.4858996413","126.8509714182","미운영","2017-03-01","","","","2021-11-17","일반","2","3","2","0","0","0","0","0","0","7","5","9","5","0","0","0","0","0","0","19","0","0","0","0","0","1","6","0","0","0","0","0","1","0","8","2021-11-17 22:03:55.0"
"구로구","11530000596","예랑어린이집","국공립","정상","08365","서울특별시 구로구 천왕로 56 313동 104호(천왕동천왕이펜하우스3단지)","02-6448-5700","02-6447-5700","","3","67","0","5","7","20","16","37.48179334477375","126.84132011631693","미운영","2017-01-01","","","","2021-11-17","야간연장","1","2","1","0","0","0","1","0","0","5","3","7","6","0","0","0","0","0","0","16","0","0","0","0","0","1","5","0","0","0","0","0","1","0","7","2021-11-17 22:03:55.0"
"구로구","11530000597","푸르뫼어린이집","국공립","정상","08267","서울특별시 구로구 고척로 82 201동 103호(개봉동 거성푸르뫼2차아파트)","02-2618-8736","","","4","76","0","6","8","20","20","37.499804598","126.843104443","미운영","2017-01-01","","","","2021-11-17","야간연장","2","2","1","0","0","0","0","0","0","5","5","9","6","0","0","0","0","0","0","20","0","0","0","0","0","1","6","0","0","0","0","0","1","0","8","2021-11-17 22:03:55.0"
"구로구","11530000595","해피벨어린이집","국공립","정상","08211","서울특별시 구로구 신도림로 32 702동 101호","02-2678-1614","","","3","75","0","5","8","20","20","37.50698476080181","126.8809507968766","미운영","2017-01-01","","","","2021-11-17","일반","2","3","1","0","0","0","0","0","0","6","4","10","6","0","0","0","0","0","0","20","0","0","0","0","0","1","6","0","0","0","0","0","1","0","8","2021-11-17 22:03:55.0"
"구로구","11530000594","롯데mom편한어린이집","직장","정상","08324","서울특별시 구로구 구일로8길 31 102동 105호(구로동구로우성아파트)","02-6737-1722","02-6735-1722","","2","84","0","4","6","15","4","37.4951729635","126.8726783565","미운영","2016-12-27","","","","2021-11-17","일반","2","0","0","0","0","0","3","0","0","5","2","0","0","0","0","0","2","0","0","4","0","0","0","0","0","1","4","0","0","0","0","0","1","0","6","2021-11-17 22:03:55.0"
"구로구","11530000593","푸른숲어린이집","국공립","정상","08323","서울특별시 구로구 구일로8길 143","02-830-0161","","","6","247","1","15","21","91","86","37.4989185578","126.8770371909","미운영","2016-12-01","","","","2021-11-17","장애아통합","2","2","2","1","1","1","0","0","3","12","6","10","14","15","16","16","0","0","9","86","0","0","0","0","0","1","14","1","0","0","0","0","2","0","21","2021-11-17 22:03:55.0"
"구로구","11530000239","신나라어린이집","국공립","정상","08275","서울특별시 구로구 경인로 382 102동 101호(개봉동 한마을아파트)","02-2060-8733","","","3","55","0","4","7","20","20","37.49532173","126.8625425","미운영","2016-09-01","","","","2021-11-17","일반","0","3","2","0","0","0","0","0","0","5","0","10","10","0","0","0","0","0","0","20","0","0","0","0","0","1","5","0","0","0","0","0","1","0","7","2021-11-17 22:03:55.0"
"구로구","11530000049","무지개어린이집","국공립","정상","08338","서울특별시 구로구 개봉로17아길 44 멤버스빌 101호 (개봉동)","02-2685-0692","02-2687-8929","kco0905@naver.com","3","78","0","4","7","18","16","37.49305127","126.851013","미운영","2016-05-01","","","","2021-11-17","일반","2","4","1","0","0","0","1","0","0","8","3","9","4","0","0","0","0","0","0","16","0","0","0","0","0","1","5","0","0","0","0","0","1","0","7","2021-11-17 22:03:55.0"
"구로구","11530000053","다솔어린이집","국공립","정상","08370","서울특별시 구로구 디지털로 319 302동 101호(구로동 현대아파트)","02-837-6232","02-6091-6232","","3","84","0","5","7","20","18","37.48834239","126.8960826","미운영","2016-05-01","","","","2021-11-17","일반","2","2","1","0","0","0","1","0","0","6","6","4","5","0","0","0","3","0","0","18","0","0","0","0","0","1","5","0","0","0","0","0","1","0","7","2021-11-17 22:03:55.0"
"구로구","11530000263","초록어린이집","가정","정상","08251","서울특별시 구로구 고척로21다길 28-1 1층(개봉1동)","02-2612-3359","02-2615-7974","club.cyworld.com/26123359","3","84","0","3","3","19","3","37.50335541507369","126.8437512649764","운영","2016-03-22","","","","2021-11-17","일반","0","0","1","0","0","0","2","0","0","3","0","0","0","0","0","0","3","0","0","3","0","0","0","0","0","1","1","0","0","0","0","0","0","0","3","2021-11-17 22:03:55.0"
"구로구","11530000591","해뜰어린이집","국공립","정상","08310","서울특별시 구로구 구로동로21길 38","02-852-5110","02-862-5110","","4","190","1","8","8","44","20","37.489628981190556","126.88214526925112","미운영","2015-11-16","","","","2021-11-17","일반","1","1","1","0","0","0","1","1","0","5","3","5","5","0","0","0","3","4","0","20","0","0","0","0","0","1","5","0","0","0","0","0","1","0","8","2021-11-17 22:03:55.0"
"구로구","11530000592","해담어린이집","국공립","정상","08364","서울특별시 구로구 천왕로 21 705동(천왕동 천왕1지구 7단지)","02-2688-8863","02-2688-8864","","5","330","1","8","11","74","67","37.47917673404922","126.83892825200762","미운영","2015-10-01","","","","2021-11-17","일반","0","1","2","1","1","1","0","0","0","6","0","5","14","15","13","20","0","0","0","67","0","0","0","0","0","1","8","0","0","0","0","0","1","0","11","2021-11-17 22:03:55.0"
"구로구","11530000590","마노아구로어린이집","직장","정상","08381","서울특별시 구로구 디지털로27길 36 이스페이스108호","02-6210-3100","02-6210-3101","","4","265","0","8","11","49","24","37.48374271350868","126.89255650093984","미운영","2015-05-15","","","","2021-11-17","일반","2","2","1","1","0","0","0","0","0","6","6","8","7","3","0","0","0","0","0","24","0","0","0","0","0","1","9","0","0","0","0","0","1","0","11","2021-11-17 22:03:55.0"
"구로구","11530000589","가온어린이집","국공립","정상","08339","서울특별시 구로구 서해안로34가길 33","02-2681-0090","02-2066-0102","","5","250","1","15","10","59","34","37.494042339804444","126.84907810333817","미운영","2015-04-01","","","","2021-11-17","야간연장","0","2","2","1","0","0","0","1","0","6","0","7","9","9","0","0","0","9","0","34","0","0","0","0","0","1","8","0","0","0","0","0","1","0","10","2021-11-17 22:03:54.0"
"구로구","11530000588","은솔어린이집","민간","정상","08208","서울특별시 구로구 경인로67길 33 101동 1층(신도림동 아이파크아파트)","02-2678-7728","02-2678-7718","","8","284","1","16","12","54","46","37.51128410526023","126.88806968349702","미운영","2015-02-24","","","","2021-11-17","일반","2","4","3","1","0","0","0","0","0","10","6","20","13","7","0","0","0","0","0","46","0","0","0","0","0","1","10","0","0","0","0","0","1","0","12","2021-11-17 22:03:55.0"
"구로구","11530000586","연우어린이집","국공립","정상","08365","서울특별시 구로구 천왕로 50 천왕이펜하우스 s","02-2612-3378","02-2614-3378","","4","313","1","9","10","65","52","37.4816523394","126.8386606345","미운영","2014-12-01","","","","2021-11-17","장애아통합","0","0","1","1","1","1","0","1","1","6","0","0","7","13","0","18","0","11","3","52","0","0","0","0","0","1","7","0","0","0","0","0","1","0","10","2021-11-17 22:03:55.0"
"구로구","11530000587","개봉푸르지오어린이집","국공립","정상","08236","서울특별시 구로구 남부순환로 775 개봉푸르지오아파트 복지관1층 개봉푸르지오어린이집","02-2615-5003","02-6958-6003","","5","303","1","8","13","66","66","37.50156868075152","126.84716301209458","미운영","2014-12-01","","","","2021-11-17","일반","1","3","2","1","0","0","0","1","0","8","2","15","14","15","0","0","0","20","0","66","0","0","0","0","0","1","10","0","0","0","0","0","1","0","13","2021-11-17 22:03:54.0"
"구로구","11530000585","숲속어린이집","가정","정상","08332","서울특별시 구로구 개봉로18길 35","070-4228-5043","02-2066-5043","","2","136","0","9","6","20","9","37.49090686727662","126.85781838802413","미운영","2014-08-14","","","","2021-11-17","일반","2","0","1","0","0","0","1","0","0","4","4","0","5","0","0","0","0","0","0","9","0","0","0","0","0","1","4","0","0","0","0","0","0","0","6","2021-11-17 22:03:55.0"
"구로구","11530000584","대우수수꽃다리어린이집","협동","폐지","08341","서울특별시 구로구 오류로8길 11 오류푸르지오아파트 106동101호","070-8226-0659","070-8226-0659","","3","74","0","4","0","20","0","37.491285629975735","126.8411140273046","미운영","2014-07-02","","","2020-03-31","2021-11-17","일반","3","2","2","1","0","0","7","0","0","15","0","0","0","0","0","0","0","0","0","0","","","","","","","","","","","","","","","","2021-11-17 22:03:55.0"
"구로구","11530000583","예다움보듬이나눔이어린이집","국공립","정상","08348","서울특별시 구로구 개봉로 29","02-2689-9760","02-2689-9761","i995a@hanmail.net","5","177","1","14","13","67","63","37.48829889834925","126.85595538349724","미운영","2014-06-23","","","","2021-11-17","야간연장","0","1","2","1","1","1","0","0","0","6","0","5","14","12","16","16","0","0","0","63","0","0","0","0","0","1","11","0","0","0","0","0","1","0","13","2021-11-17 22:03:55.0"
"구로구","11530000582","자람터어린이집","국공립","정상","08389","서울특별시 구로구 디지털로26길 5 에이스하이엔드타워 1차 201호","02-6220-2928","02-6220-2929","","4","279","1","15","14","53","46","37.481609959749996","126.89347761709238","미운영","2014-03-31","","","","2021-11-17","일반","3","3","2","1","0","0","0","1","0","10","9","15","13","0","0","0","0","9","0","46","0","0","0","0","0","1","11","0","0","0","0","0","1","0","14","2021-11-17 22:03:55.0"
"구로구","11530000581","주사랑어린이집","가정","폐지","08350","서울특별시 구로구 오리로 1102-10 213동 103호 (천왕동 천왕연지타운2단지)","02-3666-0384","02-3666-0385","","4","52","0","4","0","19","0","37.4840156743917","126.84334098327944","미운영","2014-03-06","","","2020-04-30","2021-11-17","일반","1","2","2","0","0","0","2","0","0","7","0","0","0","0","0","0","0","0","0","0","","","","","","","","","","","","","","","","2021-11-17 22:03:55.0"
"구로구","11530000580","아이샛별어린이집","가정","폐지","08350","서울특별시 구로구 오리로 1102-10 214동 103호(천왕동천왕연지타운2단지)","02-6225-7466","02-6225-7466","","4","52","0","4","0","19","0","37.4840156743917","126.84334098327944","미운영","2014-02-24","","","2019-10-10","2021-11-17","일반","1","1","2","0","0","0","2","0","0","6","0","0","0","0","0","0","0","0","0","0","","","","","","","","","","","","","","","","2021-11-17 22:03:55.0"
"구로구","11530000579","새로미어린이집","가정","정상","08350","서울특별시 구로구 오리로 1102-10 213동 104호(천왕동 천왕연지타운2단지아파트)","02-6224-1215","02-6227-1215","","4","84","0","4","8","19","19","37.4840156743917","126.84334098327944","운영","2014-02-19","","","","2021-11-17","일반","0","0","2","0","0","0","3","0","0","5","0","0","8","0","0","0","11","0","0","19","0","0","0","0","0","1","6","0","0","0","0","0","0","0","8","2021-11-17 22:03:55.0"
"구로구","11530000578","꿈꾸는어린이집","가정","정상","08368","서울특별시 구로구 항동로 42 506동 103호(한양수자인에듀힐즈)","02-6085-9000","02-6085-9000","","3","53","0","4","6","20","20","37.47850274677348","126.82711014497145","미운영","2014-02-10","","","","2021-11-17","일반","1","2","1","0","0","0","0","0","0","4","3","10","7","0","0","0","0","0","0","20","0","0","0","0","0","1","4","0","0","0","0","0","0","0","6","2021-11-17 22:03:54.0"
"구로구","11530000577","연초롱어린이집","국공립","정상","08350","서울특별시 구로구 오리로 1102-10 천왕2지구 2단지 209동1층","02-2066-2500","02-2066-2501","","6","438","1","13","13","77","57","37.4840156743917","126.84334098327944","미운영","2014-01-29","","","","2021-11-17","야간연장","1","2","1","1","0","0","0","2","0","7","3","10","7","11","0","0","0","26","0","57","0","0","0","0","0","1","10","0","0","0","0","0","1","0","13","2021-11-17 22:03:55.0"
"구로구","11530000576","새롬마을어린이집","국공립","정상","08268","서울특별시 구로구 고척로10길 45","02-2689-5588","02-2689-3456","","7","599","1","28","18","150","111","37.49724042044119","126.84181611133697","미운영","2014-01-02","","","","2021-11-17","일반","0","2","2","2","2","2","0","0","0","10","0","10","14","26","26","35","0","0","0","111","0","0","0","0","0","1","14","0","0","0","0","0","2","0","18","2021-11-17 22:03:55.0"
"구로구","11530000574","연지어린이집","국공립","정상","08342","서울특별시 구로구 오류로 39 연지타운1단지 104동 1층","02-2682-2822","02-2682-2822","","5","184","1","9","11","67","51","37.48667725666195","126.8399840479298","미운영","2014-01-02","","","","2021-11-17","야간연장","0","1","1","1","0","1","0","1","0","5","0","5","7","13","0","12","0","14","0","51","0","0","0","0","0","1","9","0","0","0","0","0","1","0","11","2021-11-17 22:03:55.0"
"구로구","11530000575","온새미어린이집","국공립","정상","08297","서울특별시 구로구 새말로18길 130","02-857-3322","02-857-3663","","5","209","1","13","14","79","78","37.50109586073607","126.89228736343216","미운영","2014-01-02","","","","2021-11-17","야간연장","0","2","2","2","1","1","0","1","0","9","0","10","14","15","20","19","0","0","0","78","0","0","0","0","0","1","11","0","0","0","0","0","1","0","14","2021-11-17 22:03:55.0"
"구로구","11530000573","IBK참!좋은어린이집","직장","정상","08379","서울특별시 구로구 디지털로32길 55 3층 구로동","02-830-3020","02-830-3083","www.ibkkids.net","4","178","0","15","13","49","40","37.48398930204628","126.89834057548853","미운영","2013-12-18","","","","2021-11-17","일반","0","4","3","0","0","0","0","2","0","9","0","10","14","0","0","0","0","16","0","40","0","0","0","0","0","1","10","0","0","0","0","0","2","0","13","2021-11-17 22:03:54.0"
"구로구","11530000572","사랑별어린이집","민간","폐지","08320","서울특별시 구로구 구로동로8길 30-1 (구로4동)","02-858-8010","02-858-8010","","4","122","0","4","0","46","0","37.48706724986176","126.88657711739498","운영","2013-12-10","","","2018-02-28","2021-11-17","일반","0","0","2","1","0","0","1","1","0","5","0","0","0","0","0","0","0","0","0","0","","","","","","","","","","","","","","","","2021-11-17 22:03:55.0"
"구로구","11530000570","은가람어린이집","국공립","정상","08200","서울특별시 구로구 경인로67길 149 신도림구민생활체육관내 1층","02-2635-1700","02-2635-1701","","4","141","0","7","13","49","41","37.5137625902","126.8832339091","미운영","2013-09-13","","","","2021-11-17","야간연장","2","3","2","1","0","0","0","0","0","8","6","15","14","6","0","0","0","0","0","41","0","0","0","0","0","1","11","0","0","0","0","0","1","0","13","2021-11-17 22:03:55.0"
"구로구","11530000567","새움터어린이집","국공립","정상","08377","서울특별시 구로구 디지털로33길 28 1차101호","02-854-0022","02-854-0202","","6","310","1","13","18","72","70","37.48698181371887","126.89531356734429","미운영","2013-05-07","","","","2021-11-17","장애아통합야간연장","0","2","2","1","1","1","0","0","2","9","0","10","14","15","15","12","0","0","4","70","0","0","0","0","0","1","14","0","0","0","0","0","1","0","18","2021-11-17 22:03:55.0"
"구로구","11530000566","새롬어린이집","가정","휴지","08342","서울특별시 구로구 서해안로20길 38 가동 101호 (오류동 우남빌라)","02-6338-5241","02-2611-7779","","4","62","0","4","0","14","0","37.48491532569481","126.83738605542716","미운영","2012-10-19","2018-10-01","2019-09-30","","2021-11-17","야간연장휴일보육","0","0","1","0","0","0","5","0","0","6","0","0","0","0","0","0","0","0","0","0","","","","","","","","","","","","","","","","2021-11-17 22:03:55.0"
"구로구","11530000565","법무부 남부보라미어린이집","직장","정상","08367","서울특별시 구로구 금오로 865 법무부 서울남부구치소내 체육관 1층","02-2611-1122","02-2611-4141","","4","147","1","16","11","54","53","37.47697860160817","126.8421335882339","미운영","2012-08-29","","","","2021-11-17","일반","0","2","1","1","1","1","0","0","0","6","0","10","7","8","12","16","0","0","0","53","0","0","0","0","0","1","8","0","0","0","0","0","1","0","11","2021-11-17 22:03:55.0"
"구로구","11530000564","구로생명숲어린이집","국공립","정상","08364","서울특별시 구로구 천왕로1길 5 (오류2동 구로생명숲어린이집)","02-2616-1671","02-2616-1677","","7","898","2","21","22","123","117","37.480618910270074","126.84232936391078","미운영","2012-07-31","","","","2021-11-17","야간연장","0","2","2","2","2","2","0","0","0","10","0","10","14","15","40","38","0","0","0","117","0","0","0","0","0","1","16","0","0","0","1","0","2","0","22","2021-11-17 22:03:54.0"
"구로구","11530000563","디큐브어린이집","민간","정상","08209","서울특별시 구로구 경인로 662","02-2672-8788","02-2672-8787","","5","180","0","8","10","42","41","37.50812346051443","126.88821255593254","미운영","2012-06-18","","","","2021-11-17","일반","2","2","4","0","0","0","0","0","0","8","6","10","25","0","0","0","0","0","0","41","0","0","0","0","0","1","8","0","0","0","0","0","1","0","10","2021-11-17 22:03:55.0"
"구로구","11530000562","우리들어린이집","가정","정상","08323","서울특별시 구로구 구일로 154-17 2동 101호(구로동 우방아파트)","070-8759-3685","","","4","51","0","4","4","19","10","37.49746316159314","126.87435089421996","미운영","2012-06-07","","","","2021-11-17","일반","1","1","1","0","0","0","1","0","0","4","0","5","0","0","0","0","5","0","0","10","0","0","0","0","0","1","2","0","0","0","0","0","0","0","4","2021-11-17 22:03:55.0"
"구로구","11530000560","자연뜰어린이집","가정","정상","08270","서울특별시 구로구 경인로 248-14 102동 101호(오류동 동부아파트)","02-2625-8887","02-2625-8887","","5","69","0","6","6","20","20","37.49722640006821","126.8479754815838","미운영","2012-06-07","","","","2021-11-17","일반","1","2","1","0","0","0","0","0","0","4","3","10","7","0","0","0","0","0","0","20","0","0","0","0","0","1","4","0","0","0","0","0","0","0","6","2021-11-17 22:03:55.0"
"구로구","11530000561","해가람어린이집","가정","폐지","08201","서울특별시 구로구 신도림로21길 25 301동 106호(신도림동 신도림우성3차아파트)","02-2675-8330","02-2675-8330","dasom7465@naver.com","4","51","0","5","0","19","0","37.51303207070554","126.8844951838495","미운영","2012-06-07","","","2019-02-28","2021-11-17","일반","1","1","1","0","0","0","5","0","0","8","0","0","0","0","0","0","0","0","0","0","","","","","","","","","","","","","","","","2021-11-17 22:03:55.0"
"구로구","11530000559","꿈담터어린이집","민간","정상","08290","서울특별시 구로구 공원로11길 45","02-863-2810","02-863-2810","","4","183","0","8","3","42","7","37.50200265899414","126.88694160750643","미운영","2012-06-01","","","","2021-11-17","일반","0","0","0","0","0","0","1","1","0","2","0","0","0","0","0","0","0","7","0","7","0","0","0","0","0","1","1","0","0","0","0","0","0","0","3","2021-11-17 22:03:54.0"
"구로구","11530000558","하늘나무어린이집","가정","폐지","08365","서울특별시 구로구 천왕로 56 313동 101호(천왕동 천왕이펜하우스3단지 )","02-2687-3379","","","4","57","0","4","0","19","0","37.4768410197614","126.844354254877","미운영","2012-05-22","","","2017-12-01","2021-11-17","일반","1","1","2","1","0","0","4","0","0","9","0","0","0","0","0","0","0","0","0","0","","","","","","","","","","","","","","","","2021-11-17 22:03:55.0"
"구로구","11530000557","푸르니어린이집","가정","폐지","08211","서울특별시 구로구 신도림로 16 302동 104호(신도림동 신도림2차e-편한세상)","02-2633-3389","","","4","53","0","5","0","19","0","37.5055330773658","126.88180160921","미운영","2012-05-18","","","2021-01-04","2021-11-17","일반","2","3","1","0","0","0","0","0","0","6","0","0","0","0","0","0","0","0","0","0","","","","","","","","","","","","","","","","2021-11-17 22:03:55.0"
"구로구","11530000556","꿈샘아이어린이집","가정","폐지","08374","서울특별시 구로구 도림로6길 29 101호(구로동)","02-855-1340","","","3","44","0","4","0","13","0","37.4852275695943","126.888518499307","미운영","2012-05-14","","","2020-12-14","2021-11-17","일반","0","1","1","0","0","0","3","0","0","5","0","0","0","0","0","0","0","0","0","0","","","","","","","","","","","","","","","","2021-11-17 22:03:54.0"
"구로구","11530000555","베베몬테소리어린이집","가정","정상","08291","서울특별시 구로구 새말로9길 45 102동 102호 (구로동 신도림현대아파트0","02-859-4649","","","3","49","0","4","7","18","17","37.50482713194099","126.88579476785219","미운영","2012-05-09","","","","2021-11-17","일반","3","2","2","0","0","0","5","0","0","12","6","5","6","0","0","0","0","0","0","17","0","0","0","0","0","1","5","0","0","0","0","0","0","0","7","2021-11-17 22:03:55.0"
"구로구","11530000554","꽃별어린이집","가정","폐지","08335","서울특별시 구로구 서해안로 2313-10 1동 109호(오류동 미래빌라)","02-6086-1235","","","4","41","0","4","0","9","0","37.4931269818312","126.841285118723","미운영","2012-05-07","","","2018-09-01","2021-11-17","일반","1","0","0","0","0","0","4","0","0","5","0","0","0","0","0","0","0","0","0","0","","","","","","","","","","","","","","","","2021-11-17 22:03:54.0"
"구로구","11530000553","아이두산어린이집","가정","폐지","08313","서울특별시 구로구 도림로 59 104동 103호 (구로동 구로두산아파트)","02-865-0998","","http://cafe.daum.net/idoosan","3","51","0","4","0","10","0","37.4888571868106","126.888924614107","미운영","2012-04-27","","","2019-04-30","2021-11-17","일반","0","1","0","0","0","0","7","0","0","8","0","0","0","0","0","0","0","0","0","0","","","","","","","","","","","","","","","","2021-11-17 22:03:55.0"
"구로구","11530000552","우성꼬마별어린이집","가정","정상","08325","서울특별시 구로구 구일로2길 60 202동 105호 (구로동 구일우성아파트)","02-866-2105","02-866-2105","","3","68","0","4","6","19","13","37.490427458153","126.87707660275","미운영","2012-04-26","","","","2021-11-17","일반","2","2","1","0","0","0","5","0","0","10","0","0","0","0","0","0","13","0","0","13","0","0","0","0","0","1","4","0","0","0","0","0","0","0","6","2021-11-17 22:03:55.0"
"구로구","11530000551","백호사랑어린이집","민간","정상","08203","서울특별시 구로구 신도림로9길 20","02-2677-5910","02-2678-3569","","4","195","0","5","7","45","19","37.5088001305714","126.880072719","운영","2012-04-17","","","","2021-11-17","일반","0","0","0","1","1","1","0","1","0","4","0","0","0","5","0","0","0","14","0","19","0","0","0","0","0","1","4","0","0","0","0","0","0","0","7","2021-11-17 22:03:55.0"
"구로구","11530000550","해솔어린이집","가정","정상","08342","서울특별시 구로구 오류로 65 101동 101호(오류동 경남아너스빌)","02-2686-4002","02-2686-4002","","3","52","0","4","5","19","18","37.4905156932225","126.839820730668","미운영","2012-04-16","","","","2021-11-17","일반","4","1","1","0","0","0","2","0","0","8","6","5","7","0","0","0","0","0","0","18","0","0","0","0","0","1","4","0","0","0","0","0","0","0","5","2021-11-17 22:03:55.0"
"구로구","11530000549","우성어린이집","가정","정상","08289","서울특별시 구로구 공원로6가길 67 2동 103호 (구로동 구로우성아파트)","02-837-3330","02-864-2220","","3","64","0","4","7","20","16","37.5036012981064","126.889096999839","미운영","2012-03-21","","","","2021-11-17","일반","2","2","1","1","0","0","1","0","0","7","6","10","0","0","0","0","0","0","0","16","0","0","0","0","0","1","5","0","0","0","0","0","0","0","7","2021-11-17 22:03:55.0"
"구로구","11530000548","늘빛어린이집","민간","폐지","08310","서울특별시 구로구 구로동로21길 38","02-852-5110","","","5","190","1","6","0","44","0","37.4896325983265","126.882143592177","운영","2012-03-20","","","2015-11-12","2021-11-17","야간연장","0","1","2","0","0","0","3","1","0","7","0","0","0","0","0","0","0","0","0","0","","","","","","","","","","","","","","","","2021-11-17 22:03:54.0"
"구로구","11530000547","아기동산어린이집","가정","재개","08368","서울특별시 구로구 항동로 8 605동 101호(항동 우남퍼스트빌)","02-2616-0666","02-2616-0666","","3","62","0","4","8","20","12","37.49518340506391","126.86192082154723","미운영","2012-03-06","","","","2021-11-17","야간연장휴일보육24시간","3","2","0","0","0","0","4","0","0","9","0","0","0","0","0","0","12","0","0","12","0","0","0","0","0","1","6","0","0","0","0","0","0","0","8","2021-11-17 22:03:55.0"
"구로구","11530000546","예랑어린이집","가정","폐지","08365","서울특별시 구로구 천왕로 56 313동 104호(천왕동 천왕이펜하우스3단지)","02-6448-5700","02-6447-5700","","4","67","1","5","0","19","0","37.483054655310475","126.83891540504997","미운영","2012-02-27","","","2016-12-31","2021-11-17","일반","2","1","1","0","0","0","3","0","0","7","0","0","0","0","0","0","0","0","0","0","","","","","","","","","","","","","","","","2021-11-17 22:03:55.0"
"구로구","11530000544","해나래어린이집","국공립","정상","08365","서울특별시 구로구 천왕로 56 천왕이펜하우스3단지 306동 1층","02-2060-5578","02-2060-5579","kins1211@naver.com","4","167","0","8","10","46","32","37.48182396314499","126.84063885236908","미운영","2012-02-13","","","","2021-11-17","야간연장","0","0","2","1","0","0","4","0","0","7","0","0","14","5","0","0","13","0","0","32","0","0","0","0","0","1","7","0","0","0","0","0","1","0","10","2021-11-17 22:03:55.0"
"구로구","11530000545","구립해사랑어린이집","국공립","정상","08364","서울특별시 구로구 천왕로 91 천왕이펜하우스1단지 102동 1층","02-2614-5008","02-2612-5008","","3","103","0","9","8","30","24","37.4772338793662","126.844371520911","미운영","2012-02-13","","","","2021-11-17","야간연장","1","2","2","0","0","0","1","0","0","6","2","10","12","0","0","0","0","0","0","24","0","0","0","0","0","1","6","0","0","0","0","0","1","0","8","2021-11-17 22:03:54.0"
"구로구","11530000543","해가빛어린이집","가정","폐지","08364","서울특별시 구로구 천왕로 9 602동102호(천왕동 천왕이펜하우스6단지)","02-2619-2279","02-2619-2279","","3","84","0","4","0","19","0","37.476059559147785","126.84481262337508","미운영","2011-11-09","","","2021-11-11","2021-11-17","일반","1","0","0","0","0","0","4","0","0","5","0","0","0","0","0","0","0","0","0","0","","","","","","","","","","","","","","","","2021-11-17 22:03:55.0"
"구로구","11530000542","튼튼어린이집","가정","폐지","08365","서울특별시 구로구 천왕로 56 313동 102호(천왕동 천왕이펜하우스3단지)","02-6014-5582","02-6014-5582","","3","84","0","4","0","19","0","37.4830546553","126.838915405","미운영","2011-11-09","","","2021-03-25","2021-11-17","일반","0","1","1","1","0","0","3","0","0","6","0","0","0","0","0","0","0","0","0","0","","","","","","","","","","","","","","","","2021-11-17 22:03:55.0"
"구로구","11530000540","꽃별아이어린이집","가정","재개","08357","서울특별시 구로구 경인로8길 64 107동 103호(오류동 영풍마드레빌아파트)","02-6086-1235","","","3","56","0","4","7","19","19","37.4921675099","126.8402934767","미운영","2011-11-01","","","","2021-11-17","일반","1","1","1","0","0","0","2","0","0","5","3","5","6","0","0","0","5","0","0","19","0","0","0","0","0","1","5","0","0","0","0","0","0","0","7","2021-11-17 22:03:54.0"
"구로구","11530000541","꼬마별어린이집","가정","정상","08368","서울특별시 구로구 항동로 43 308동 106호 (항동 항동하버라인3단지)","02-2611-1911","","","3","54","0","4","7","20","20","37.47931948455941","126.82343669467235","미운영","2011-11-01","","","","2021-11-17","야간연장","1","0","1","0","0","0","3","0","0","5","3","0","7","0","0","0","10","0","0","20","0","0","0","0","0","1","5","0","0","0","0","0","0","0","7","2021-11-17 22:03:54.0"
"구로구","11530000539","좋은열매어린이집","협동","정상","08259","서울특별시 구로구 부일로9길 127 (온수힐스테이트아파트115-106 / 온수동 155)","02-2685-0419","02-2685-0419","","3","102","0","4","7","20","20","37.4975955523","126.8204783209","미운영","2011-10-28","","","","2021-11-17","일반","1","2","1","1","0","0","1","0","0","6","3","10","7","0","0","0","0","0","0","20","0","0","0","0","0","1","5","0","0","0","0","0","0","0","7","2021-11-17 22:03:55.0"
"구로구","11530000535","해뜨락어린이집","국공립","정상","08364","서울특별시 구로구 천왕로 9 천왕이펜하우스6단지 605동 1층","02-2682-2121","02-2682-2122","","4","224","0","7","10","49","34","37.479019043481706","126.84225701448686","미운영","2011-09-27","","","","2021-11-17","야간연장","1","2","2","0","0","0","0","1","0","6","3","10","13","0","0","0","0","8","0","34","0","0","0","0","0","1","8","0","0","0","0","0","1","0","10","2021-11-17 22:03:55.0"
"구로구","11530000537","해누리어린이집","국공립","정상","08365","서울특별시 구로구 천왕로 92 천왕이펜하우스2단지 203동 1층","02-2689-5004","02-2689-5055","","4","217","0","9","9","49","37","37.4852303582","126.8380876043","미운영","2011-09-27","","","","2021-11-17","야간연장","0","2","2","0","0","0","1","1","0","6","0","10","13","0","0","0","3","11","0","37","0","0","0","0","0","1","7","0","0","0","0","0","1","0","9","2021-11-17 22:03:55.0"
"구로구","11530000536","해랑어린이집","국공립","정상","08365","서울특별시 구로구 천왕로 10 천왕이펜하우스 5단지  505동 1층","02-2687-2277","02-2687-2278","","4","212","0","9","9","49","34","37.476059559147785","126.84481262337508","미운영","2011-09-27","","","","2021-11-17","야간연장","1","2","2","1","0","0","0","0","0","6","3","9","14","8","0","0","0","0","0","34","0","0","0","0","0","1","7","0","0","0","0","0","1","0","9","2021-11-17 22:03:55.0"
"구로구","11530000538","해돋이어린이집","국공립","정상","08364","서울특별시 구로구 천왕로 29 천왕이펜하우스4단지 408동 1충","02-2682-8080","02-2682-8081","http://cafe.daum.net/sunup4","4","232","0","8","10","49","30","37.48080169765341","126.83859462718612","미운영","2011-09-27","","","","2021-11-17","야간연장","2","2","2","0","0","0","0","1","0","7","6","10","7","0","0","0","0","7","0","30","0","0","0","0","0","1","8","0","0","0","0","0","1","0","10","2021-11-17 22:03:55.0"
"구로구","11530000534","LG전자구로어린이집","직장","정상","08327","서울특별시 구로구 가마산로 95","02-868-1410","02-868-1450","","4","243","1","18","16","72","55","37.48607006365031","126.87690447922882","미운영","2011-09-05","","","","2021-11-17","야간연장","0","0","1","4","3","3","0","0","0","11","0","0","0","24","18","13","0","0","0","55","0","0","0","0","0","1","12","0","0","0","0","0","2","0","16","2021-11-17 22:03:54.0"
"구로구","11530000533","파란하늘어린이집","가정","폐지","08364","서울특별시 구로구 천왕로 9 602동 104호(천왕동 천왕이펜하우스6단지)","02-2611-8977","","","3","84","0","4","0","19","0","37.479019043481706","126.84225701448686","미운영","2011-09-05","","","2018-10-01","2021-11-17","일반","2","2","1","0","0","0","4","0","0","9","0","0","0","0","0","0","0","0","0","0","","","","","","","","","","","","","","","","2021-11-17 22:03:55.0"
"구로구","11530000532","리터러시어린이집","가정","폐지","08364","서울특별시 구로구 천왕로 29 403동 104호","02-921-4534","","","3","84","0","4","0","19","0","37.4808016977","126.8385946272","미운영","2011-08-29","","","2020-03-09","2021-11-17","일반","2","1","1","0","0","0","1","0","0","5","0","0","0","0","0","0","0","0","0","0","","","","","","","","","","","","","","","","2021-11-17 22:03:55.0"
"구로구","11530000531","꼬마서광어린이집","가정","폐지","08365","서울특별시 구로구 천왕로 10 501동104호(천왕동 천왕이펜하우스5단지)","02-2625-5004","","","3","84","0","5","0","19","0","37.48061572835566","126.8423305390601","미운영","2011-08-01","","","2018-03-21","2021-11-17","일반","0","0","2","0","0","0","2","0","0","4","0","0","0","0","0","0","0","0","0","0","","","","","","","","","","","","","","","","2021-11-17 22:03:54.0"
"구로구","11530000530","지구촌어린이집","민간","폐지","08358","서울특별시 구로구 오리로 1189 1층","02-6910-1071","02-6910-1094","","4","184","0","11","0","39","0","37.48885919304994","126.83517606527255","미운영","2011-06-16","","","2017-04-05","2021-11-17","일반","0","1","1","1","0","0","0","1","0","4","0","0","0","0","0","0","0","0","0","0","","","","","","","","","","","","","","","","2021-11-17 22:03:55.0"
"구로구","11530000529","초코렛어린이집","가정","정상","08202","서울특별시 구로구 신도림로 87 110동 102호(신도림동 동아1차아파트)","02-2637-3653","","","4","84","0","4","7","19","19","37.51107655","126.8827651","미운영","2011-06-02","","","","2021-11-17","야간연장","1","2","1","0","0","0","2","0","0","6","3","10","6","0","0","0","0","0","0","19","0","0","0","0","0","1","5","0","0","0","0","0","0","0","7","2021-11-17 22:03:55.0"
"구로구","11530000528","아이맘어린이집","가정","정상","08324","서울특별시 구로구 구일로4길 65 105동 106호(구로동 주공아파트)","02-6347-0198","02-6347-0198","","3","73","0","4","5","17","13","37.49299645","126.8752781","미운영","2011-05-16","","","","2021-11-17","일반","1","1","1","0","0","0","2","0","0","5","3","5","0","0","0","0","5","0","0","13","0","0","0","0","0","1","3","0","0","0","0","0","0","0","5","2021-11-17 22:03:55.0"
"구로구","11530000527","예꼬어린이집","민간","폐지","08269","서울특별시 구로구 고척로 12 (오류동)","02-2611-3370","02-2611-3372","","7","203","3","13","0","67","0","37.49590886760511","126.84057500317338","운영","2011-05-03","","","2020-02-29","2021-11-17","일반","0","2","2","1","1","1","0","0","0","7","0","0","0","0","0","0","0","0","0","0","","","","","","","","","","","","","","","","2021-11-17 22:03:55.0"
"구로구","11530000526","예손유앤아이어린이집","가정","정상","08327","서울특별시 구로구 가마산로 87 105동 102호(구로동 한일유앤아파트)","02-2060-3497","","","3","84","0","4","5","19","11","37.48630219","126.8759891","미운영","2011-04-28","","","","2021-11-17","일반","1","1","2","0","0","0","2","0","0","6","3","0","5","0","0","0","3","0","0","11","0","0","0","0","0","1","3","0","0","0","0","0","0","0","5","2021-11-17 22:03:55.0"
"구로구","11530000523","해다미어린이집","가정","정상","08364","서울특별시 구로구 천왕로 91 105동T101호(천왕동 천왕이펜하우스 1단지)","02-6339-0009","02-6339-0009","","3","72","0","4","6","17","17","37.48802202","126.8381497","미운영","2011-04-15","","","","2021-11-17","일반","1","1","1","0","0","0","1","0","0","4","3","5","6","0","0","0","3","0","0","17","0","0","0","0","0","1","4","0","0","0","0","0","0","0","6","2021-11-17 22:03:55.0"
"구로구","11530000525","이레몬테소리어린이집","가정","정상","08323","서울특별시 구로구 구일로8길 92 1동 102호(구로동 중앙하이츠아파트)","02-6347-1223","","","3","79","0","4","7","18","18","37.4967404","126.8760497","미운영","2011-04-15","","","","2021-11-17","일반","2","1","1","0","0","0","2","0","0","6","3","5","7","0","0","0","3","0","0","18","0","0","0","0","0","1","5","0","0","0","0","0","0","0","7","2021-11-17 22:03:55.0"
"구로구","11530000524","블루밍서연어린이집","민간","폐지","08228","서울특별시 구로구 고척로60길 30 고척벽산베스트블루밍 아파트 관리동1층","02-2686-4333","02-2683-4333","","3","102","0","5","0","23","0","37.50515460102385","126.85867805497409","미운영","2011-04-14","","","2018-02-28","2021-11-17","일반","1","2","1","0","0","0","5","0","0","9","0","0","0","0","0","0","0","0","0","0","","","","","","","","","","","","","","","","2021-11-17 22:03:55.0"
"구로구","11530000522","해뜨는어린이집","협동","폐지","08257","서울특별시 구로구 부일로 927 102동 106호(궁동 궁동우남푸르미아아파트)","02-2686-7188","","","3","84","0","5","0","19","0","37.49349413","126.8296731","미운영","2011-04-08","","","2019-03-10","2021-11-17","일반","2","2","1","1","0","0","1","0","0","7","0","0","0","0","0","0","0","0","0","0","","","","","","","","","","","","","","","","2021-11-17 22:03:55.0"
"구로구","11530000520","우방어린이집","가정","폐지","08323","서울특별시 구로구 구일로 154-17 1동 101호(구로동 우방아파트)","02-858-0506","","","3","84","0","4","0","19","0","37.49751725","126.8748348","미운영","2011-04-05","","","2019-02-28","2021-11-17","일반","2","1","1","0","0","0","1","0","0","5","0","0","0","0","0","0","0","0","0","0","","","","","","","","","","","","","","","","2021-11-17 22:03:55.0"
"구로구","11530000519","이화우성어린이집","가정","폐지","08369","서울특별시 구로구 도림로22길 8 101동 110호(구로동 이화우성아파트)","02-859-5152","02-859-5153","","4","114","0","4","0","20","0","37.48973431","126.8937508","미운영","2011-04-04","","","2018-02-28","2021-11-17","일반","0","1","1","0","0","0","3","0","0","5","0","0","0","0","0","0","0","0","0","0","","","","","","","","","","","","","","","","2021-11-17 22:03:55.0"
"구로구","11530000518","밝은햇살어린이집","가정","폐지","08374","서울특별시 구로구 도림로8길 4 101호","02-2601-4100","02-6349-2278","","3","59","0","4","0","13","0","37.48581329","126.8874506","미운영","2011-04-01","","","2017-11-27","2021-11-17","일반","0","0","0","0","0","0","2","0","0","2","0","0","0","0","0","0","0","0","0","0","","","","","","","","","","","","","","","","2021-11-17 22:03:55.0"
"구로구","11530000521","예원어린이집","가정","정상","08324","서울특별시 구로구 구일로4길 65 주공아파트 106동 106호 (구로동)","02-6339-1020","02-6339-1020","","3","73","0","4","6","17","12","37.49299645","126.8752781","미운영","2011-04-01","","","","2021-11-17","일반","2","0","1","0","0","0","3","0","0","6","4","0","5","0","0","0","3","0","0","12","0","0","0","0","0","1","4","0","0","0","0","0","0","0","6","2021-11-17 22:03:55.0"
"구로구","11530000517","호수어린이집","가정","정상","152753","서울특별시 구로구 남부순환로95길 54 106동 106호(개봉동 삼환아파트)","02-2066-0776","02-2066-0776","","4","114","0","5","6","20","20","37.49475286","126.8543049","미운영","2011-03-31","","","","2021-11-17","일반","1","1","1","0","0","0","1","0","0","4","3","5","7","0","0","0","5","0","0","20","0","0","0","0","0","1","4","0","0","0","0","0","0","0","6","2021-11-17 22:03:56.0"
"구로구","11530000516","늘해랑어린이집","가정","폐지","08336","서울특별시 구로구 남부순환로95길 88 102동 105호(개봉동 두산아파트)","02-6408-5968","02-6408-5968","","3","84","0","4","0","19","0","37.49103209","126.8565894","미운영","2011-03-28","","","2019-06-29","2021-11-17","일반","1","3","3","1","0","0","3","0","0","11","0","0","0","0","0","0","0","0","0","0","","","","","","","","","","","","","","","","2021-11-17 22:03:54.0"
"구로구","11530000515","예쁜꿈어린이집","협동","폐지","08253","서울특별시 구로구 고척로 49 206동 102호(오류동 동부골든아파트)","02-2684-4723","02-2684-4723","chanhee1022@naver.com","3","61","0","4","0","19","0","37.49927744","126.8395847","미운영","2011-03-21","","","2021-03-08","2021-11-17","일반","1","0","1","0","0","0","2","0","0","4","0","0","0","0","0","0","0","0","0","0","","","","","","","","","","","","","","","","2021-11-17 22:03:55.0"
"구로구","11530000514","하람어린이집","직장","폐지","08217","서울특별시 구로구 경인로53길 15 중앙유통단지 업무B동 1호 (구로동)","02-6343-9123","02-6343-9125","","5","204","1","8","0","49","0","37.50102878","126.8746656","미운영","2011-03-15","","","2020-03-16","2021-11-17","일반","2","1","2","1","1","1","1","0","0","9","0","0","0","0","0","0","0","0","0","0","","","","","","","","","","","","","","","","2021-11-17 22:03:55.0"
"구로구","11530000513","꿈샘어린이집","가정","폐지","08374","서울특별시 구로구 도림로6길 29-1 101호","02-855-1227","","","3","59","0","6","0","13","0","37.48515643","126.888599","미운영","2011-03-11","","","2021-04-06","2021-11-17","야간연장","0","1","0","0","0","0","2","0","0","3","0","0","0","0","0","0","0","0","0","0","","","","","","","","","","","","","","","","2021-11-17 22:03:54.0"
"구로구","11530000512","꽃뜰어린이집","가정","정상","08331","서울특별시 구로구 개봉로2길 133-15 105동 101호(개봉동 개봉동현대아이파크아파트)","02-2618-2004","02-2618-2004","fill405@naver.com","4","84","0","4","4","19","9","37.48993313","126.8597916","미운영","2011-03-11","","","","2021-11-17","일반","2","6","6","0","0","0","11","0","0","25","0","0","6","0","0","0","3","0","0","9","0","0","0","0","0","1","2","0","0","0","0","0","0","0","4","2021-11-17 22:03:54.0"
"구로구","11530000510","대림숲베이비어린이집","가정","","152774","서울 구로구 신도림동  e편한세상대림2차아파트 101동 104호","02-2676-4649","","","4","84","0","0","0","19","0","","","","2011-03-07","","","","2021-11-17","일반","0","0","0","0","0","0","0","0","0","0","0","0","0","0","0","0","0","0","0","0","","","","","","","","","","","","","","","","2021-11-17 22:03:55.0"
"구로구","11530000511","대림숲어린이집","가정","정상","08211","서울특별시 구로구 신도림로 16 101동 104호(신도림동 신도림2차e-편한세상)","02-2676-4649","","","4","84","0","4","7","19","18","37.506947596956294","126.88207620127151","미운영","2011-03-07","","","","2021-11-17","일반","1","2","1","0","0","0","2","0","0","6","3","5","6","0","0","0","4","0","0","18","0","0","0","0","0","1","5","0","0","0","0","0","0","0","7","2021-11-17 22:03:55.0"
"구로구","11530000507","보배사랑어린이집","가정","폐지","08218","서울특별시 구로구 중앙로12길 7 101동 101호(고척동 고척LIG리가1단지)","02-2619-3377","","","3","84","0","4","0","19","0","37.50564037","126.8614166","미운영","2010-11-08","","","2020-12-01","2021-11-17","일반","0","2","1","0","0","0","1","0","0","4","0","0","0","0","0","0","0","0","0","0","","","","","","","","","","","","","","","","2021-11-17 22:03:55.0"
"구로구","11530000506","대림숲베이비어린이집","가정","폐지","152774","서울 구로구 신도림동 e편한세상대림2차아파트 101동 104호","02-2676-4649","","","3","85","0","0","0","19","0","","","","2010-09-02","","","2010-09-27","2021-11-17","일반","1","0","0","0","0","0","0","0","0","1","0","0","0","0","0","0","0","0","0","0","","","","","","","","","","","","","","","","2021-11-17 22:03:55.0"
"구로구","11530000505","엄마품어린이집","가정","정상","08344","서울특별시 구로구 오류로8다길 9 다동 106호(오류동 우석빌라)","02-2682-7772","02-2682-7772","","2","37","0","3","3","9","3","37.49067769","126.8428647","미운영","2010-06-01","","","","2021-11-17","일반","0","0","0","0","0","0","6","0","0","6","0","0","0","0","0","0","3","0","0","3","0","0","0","0","0","1","2","0","0","0","0","0","0","0","3","2021-11-17 22:03:55.0"
"구로구","11530000504","무궁화어린이집","가정","폐지","08373","서울특별시 구로구 디지털로27라길 30 1층 1호(구로동)","02-863-3133","","","2","35","0","0","0","10","0","37.48524871","126.8886394","미운영","2010-05-31","","","2017-05-12","2021-11-17","","0","0","0","0","0","0","2","1","0","3","0","0","0","0","0","0","0","0","0","0","","","","","","","","","","","","","","","","2021-11-17 22:03:55.0"
"구로구","11530000502","하은어린이집","가정","폐지","08372","서울특별시 구로구 도림로12길 5-9 101호 (구로동)","02-2647-9990","","","2","33","0","0","0","7","0","37.48723812","126.8887253","미운영","2010-05-17","","","2014-12-08","2021-11-17","일반","0","0","0","0","0","0","2","0","0","2","0","0","0","0","0","0","0","0","0","0","","","","","","","","","","","","","","","","2021-11-17 22:03:55.0"
"구로구","11530000500","아이둥지어린이집","가정","폐지","152875","서울 구로구 구로3동 796-26번지 101호","02-869-5585","","","3","43","0","0","0","11","0","","","","2010-03-31","","","2010-06-28","2021-11-17","일반","0","0","0","0","0","0","0","0","0","0","0","0","0","0","0","0","0","0","0","0","","","","","","","","","","","","","","","","2021-11-17 22:03:55.0"
"구로구","11530000499","아이미소어린이집","가정","정상","08368","서울특별시 구로구 항동로 42 한양수자인에듀힐즈 507-101","02-2688-7774","","","3","62","0","4","6","20","20","37.478316892505795","126.8263276547924","미운영","2010-03-24","","","","2021-11-17","야간연장","1","1","1","0","0","0","2","0","0","5","3","5","7","0","0","0","5","0","0","20","0","0","0","0","0","1","4","0","0","0","0","0","0","0","6","2021-11-17 22:03:55.0"
"구로구","11530000497","꿈이크는어린이집","가정","정상","08275","서울특별시 구로구 경인로 382 111동 101호(개봉동 한마을아파트)","02-6347-4827","02-6347-4827","","3","66","0","4","6","13","13","37.49532173","126.8625425","미운영","2010-03-09","","","","2021-11-17","일반","3","1","0","0","0","0","7","0","0","11","0","0","0","0","0","0","13","0","0","13","0","0","0","0","0","1","4","0","0","0","0","0","0","0","6","2021-11-17 22:03:54.0"
"구로구","11530000498","현대힐스어린이집","민간","정상","08259","서울특별시 구로구 부일로9길 127 온수힐스테이트 107동 (온수동)","02-6738-1400","02-6738-1500","","7","302","3","8","13","70","64","37.49675872","126.820989","미운영","2010-03-09","","","","2021-11-17","야간연장","0","0","3","1","1","1","0","1","0","7","0","0","21","10","13","10","0","10","0","64","0","0","0","0","0","1","10","0","0","0","0","0","1","0","13","2021-11-17 22:03:56.0"
"구로구","11530000496","사랑샘어린이집","가정","정상","08259","서울특별시 구로구 부일로9길 127 113동 103호(온수동 현대힐스테이트)","02-2066-6727","","","3","53","0","4","8","20","20","37.49675872","126.820989","미운영","2010-03-04","","","","2021-11-17","일반","2","0","0","0","0","0","3","0","0","5","6","0","0","0","0","0","14","0","0","20","0","0","0","0","0","1","6","0","0","0","0","0","0","0","8","2021-11-17 22:03:55.0"
"구로구","11530000495","해피어린이집","가정","폐지","08373","서울특별시 구로구 디지털로27라길 29-8 101호(구로동)","02-869-5585","","","1","37","0","0","0","10","0","37.48563687","126.8874702","미운영","2010-02-02","","","2014-07-16","2021-11-17","야간연장","0","0","1","0","0","0","5","0","0","6","0","0","0","0","0","0","0","0","0","0","","","","","","","","","","","","","","","","2021-11-17 22:03:55.0"
"구로구","11530000494","푸른꿈어린이집","가정","폐지","08323","서울특별시 구로구 구일로8길 92 6동 103호(구로동 중앙하이츠아파트)","02-864-7870","02-864-7879","","1","48","0","0","0","13","0","37.4967404","126.8760497","미운영","2010-01-22","","","2015-10-01","2021-11-17","일반","0","0","0","0","0","0","2","0","0","2","0","0","0","0","0","0","0","0","0","0","","","","","","","","","","","","","","","","2021-11-17 22:03:55.0"
"구로구","11530000493","햇빛어린이집","가정","정상","08371","서울특별시 구로구 디지털로31길 90 114동 101호(구로동 삼성래미안아파트)","02-866-7637","02-866-7687","","3","58","1","4","7","20","15","37.48771772","126.891821","미운영","2010-01-15","","","","2021-11-17","일반","1","2","1","0","0","0","0","0","0","4","3","7","5","0","0","0","0","0","0","15","0","0","0","0","0","1","5","0","0","0","0","0","1","0","7","2021-11-17 22:03:55.0"
"구로구","11530000388","아이누리어린이집","가정","정상","08240","서울특별시 구로구 중앙로 121 106동 101호(고척동 고척파크푸르지오아파트)","02-2691-5555","02-2691-5555","","3","68","0","4","7","19","16","37.508873119216005","126.85798790331198","미운영","2009-12-16","","","","2021-11-17","일반","0","0","1","0","0","0","3","0","0","4","0","0","5","0","0","0","11","0","0","16","0","0","0","0","0","1","5","0","0","0","0","0","0","0","7","2021-11-17 22:03:55.0"
"구로구","11530000387","참빛어린이집","가정","정상","08324","서울특별시 구로구 구일로4길 65 109동 108호(구로동 주공아파트)","02-830-8749","02-830-8749","","3","49","0","4","5","16","15","37.49299645","126.8752781","미운영","2009-11-19","","","","2021-11-17","일반","1","1","1","0","0","0","1","0","0","4","0","5","7","0","0","0","3","0","0","15","0","0","0","0","0","1","3","0","0","0","0","0","0","0","5","2021-11-17 22:03:55.0"
"구로구","11530000386","둥지어린이집","가정","휴지","08385","서울특별시 구로구 구로동로2길 17-6","02-861-3399","02-859-3399","ko60ko@ hanmail.net","2","53","0","7","0","20","0","37.48419606","126.8873694","미운영","2009-11-13","2017-03-13","2018-03-04","","2021-11-17","야간연장","0","1","0","0","0","0","2","0","0","3","0","0","0","0","0","0","0","0","0","0","","","","","","","","","","","","","","","","2021-11-17 22:03:55.0"
"구로구","11530000385","엄마품에어린이집","가정","정상","08323","서울특별시 구로구 구일로8길 92 5동 105호(구로동 중앙하이츠아파트)","02-866-7772","070-4699-1314","","3","54","0","4","3","18","7","37.4967404","126.8760497","미운영","2009-10-29","","","","2021-11-17","일반","2","1","2","0","0","0","2","0","0","7","3","0","0","0","0","0","4","0","0","7","0","0","0","0","0","1","1","0","0","0","0","0","0","0","3","2021-11-17 22:03:55.0"
"구로구","11530000384","예은별어린이집","가정","정상","08303","서울특별시 구로구 구로중앙로18길 68 1동 108호(구로동 신구로현대아파트)","02-868-7234","02-858-7234","www.carebabys.com","3","65","1","4","6","16","11","37.49594875","126.8931695","미운영","2009-10-12","","","","2021-11-17","일반","4","1","0","0","0","0","2","0","0","7","6","5","0","0","0","0","0","0","0","11","0","0","0","0","0","1","4","0","0","0","0","0","0","0","6","2021-11-17 22:03:55.0"
"구로구","11530000383","리가숲어린이집","민간","정상","08218","서울특별시 구로구 중앙로12길 7 리가건영아파트 관리동 (고척동)","02-2613-9282","02-2613-9282","","5","114","0","5","8","32","13","37.50564037","126.8614166","운영","2009-10-08","","","","2021-11-17","야간연장","0","0","1","0","0","0","3","1","0","5","0","0","0","0","0","0","6","7","0","13","0","0","0","0","0","1","5","0","0","0","0","0","0","0","8","2021-11-17 22:03:55.0"
"구로구","11530000382","푸르지오아이숲어린이집","민간","폐지","08240","서울특별시 구로구 중앙로 121 파크푸르지오 관리동 (고척동)","02-2613-9280","","","5","101","0","4","0","23","0","37.5076175","126.8580828","미운영","2009-09-11","","","2019-03-31","2021-11-17","일반","2","2","2","0","0","0","0","0","0","6","0","0","0","0","0","0","0","0","0","0","","","","","","","","","","","","","","","","2021-11-17 22:03:55.0"
"구로구","11530000381","대우맑은샘어린이집","가정","정상","08240","서울특별시 구로구 중앙로 121 104동 102호","02-2688-7024","02-2688-7024","","3","68","0","4","6","19","19","37.50886951520802","126.85798791013961","미운영","2009-09-07","","","","2021-11-17","일반","1","1","1","0","0","0","2","0","0","5","3","5","7","0","0","0","4","0","0","19","0","0","0","0","0","1","4","0","0","0","0","0","0","0","6","2021-11-17 22:03:55.0"
"구로구","11530000380","딸기어린이집","가정","정상","152761","서울특별시 구로구 구일로4길 65 111동 108호(구로동 주공아파트)","02-867-4280","","","3","73","0","4","2","17","5","37.49299645","126.8752781","미운영","2009-08-31","","","","2021-11-17","일반","1","0","0","0","0","0","1","0","0","2","2","0","0","0","0","0","3","0","0","5","0","0","0","0","0","1","1","0","0","0","0","0","0","0","2","2021-11-17 22:03:55.0"
"구로구","11530000376","이삭어린이집","가정","정상","08324","서울특별시 구로구 구일로4길 65 107동 105호(구로동 구로주공아파트)","02-855-5894","","http://issac-play.cyworld.com","3","54","0","4","5","17","12","37.49299645","126.8752781","미운영","2009-07-01","","","","2021-11-17","일반","1","1","0","0","0","0","1","0","0","3","2","5","0","0","0","0","5","0","0","12","0","0","0","0","0","1","3","0","0","0","0","0","0","0","5","2021-11-17 22:03:55.0"
"구로구","11530000375","좋은나무어린이집","가정","정상","08253","서울특별시 구로구 고척로 49 201동 104호(오류동 동부골든아파트)","02-2688-2093","02-2688-2093","","4","68","0","4","7","16","16","37.49927744","126.8395847","미운영","2009-06-23","","","","2021-11-17","일반","7","4","1","0","0","0","4","0","0","16","6","5","0","0","0","0","5","0","0","16","0","0","0","0","0","1","5","0","0","0","0","0","0","0","7","2021-11-17 22:03:55.0"
"구로구","11530000377","좋은나무","가정","폐지","152783","서울 구로구 오류1동 동부골든아파트 208/108","02-2688-2093","02-2688-2093","","1","44","0","0","0","16","0","","","","2009-06-23","","","2009-06-23","2021-11-17","일반","0","0","0","0","0","0","0","0","0","0","0","0","0","0","0","0","0","0","0","0","","","","","","","","","","","","","","","","2021-11-17 22:03:55.0"
"구로구","11530000374","드림어린이집","민간","폐지","08358","서울특별시 구로구 오리로11길 109 (오류동 292-5)","02-2684-6009","070-7864-4099","","5","204","1","11","0","76","0","37.48683531","126.8307483","운영","2009-05-27","","","2017-03-20","2021-11-17","야간연장","0","2","3","2","0","0","1","2","0","10","0","0","0","0","0","0","0","0","0","0","","","","","","","","","","","","","","","","2021-11-17 22:03:55.0"
"구로구","11530000371","해오름어린이집","가정","폐지","08289","서울특별시 구로구 공원로6가길 67 3동 102호(구로동 구로우성아파트)","02-857-5110","","http://cafe.daum.net/guro-sunkids","3","60","0","4","0","19","0","37.50486679012905","126.88960041830513","미운영","2009-05-26","","","2019-02-28","2021-11-17","야간연장","2","3","1","0","0","0","1","0","0","7","0","0","0","0","0","0","0","0","0","0","","","","","","","","","","","","","","","","2021-11-17 22:03:55.0"
"구로구","11530000369","꿈초롱어린이집","가정","정상","08211","서울특별시 구로구 신도림로 16 105동 103호(신도림동 대림2차아파트)","02-6738-5629","02-6738-5629","","3","65","0","4","6","19","19","37.50580136","126.8807117","미운영","2009-04-29","","","","2021-11-17","일반","1","1","2","0","0","0","3","0","0","7","0","5","7","0","0","0","7","0","0","19","0","0","0","0","0","1","4","0","0","0","0","0","0","0","6","2021-11-17 22:03:54.0"
"구로구","11530000367","큰사랑어린이집","가정","재개","08206","서울특별시 구로구 신도림로 11 601동 104호(신도림동 대림3차아파트)","02-2634-7922","02-2634-7922","http://cafe.naver.com/biglove7922","3","61","0","4","7","19","19","37.50709138","126.8781193","미운영","2009-03-10","","","","2021-11-17","일반","2","4","3","0","0","0","4","0","0","13","5","5","5","0","0","0","4","0","0","19","0","0","0","0","0","1","5","0","0","0","0","0","0","0","7","2021-11-17 22:03:55.0"
"구로구","11530000365","꼬꼬마어린이집","가정","정상","08355","서울특별시 구로구 개봉로1길 170 102동 102호(개봉동 대상아파트)","02-2611-5004","02-2686-5003","","3","52","0","4","6","19","13","37.48227117","126.849801","미운영","2009-03-02","","","","2021-11-17","일반","2","2","1","0","0","0","5","0","0","10","5","0","0","0","0","0","8","0","0","13","0","0","0","0","0","1","4","0","0","0","0","0","0","0","6","2021-11-17 22:03:54.0"
"구로구","11530000366","수수꽃다리어린이집","협동","정상","08357","서울특별시 구로구 경인로8길 64 109동 102호(오류동 영풍마드레빌아파트)","02-2060-8373","02-2615-3596","","3","52","0","4","7","19","17","37.49106393","126.8276631","미운영","2009-03-02","","","","2021-11-17","일반","0","5","7","1","0","0","10","0","0","23","0","0","7","0","0","0","10","0","0","17","0","0","0","0","0","1","5","0","0","0","0","0","0","0","7","2021-11-17 22:03:55.0"
"구로구","11530000362","대광어린이집","민간","정상","08352","서울특별시 구로구 개봉로11길 17 (개봉동)","02-2614-4776","02-2613-9385","jsyum21@naver.com","7","285","2","10","12","79","57","37.48750563","126.8553078","운영","2009-02-17","","","","2021-11-17","일반","0","2","2","2","1","1","0","0","0","8","0","4","14","14","12","13","0","0","0","57","0","0","0","0","0","1","8","0","0","0","0","0","2","0","12","2021-11-17 22:03:55.0"
"구로구","11530000361","사랑가득어린이집","가정","폐지","08202","서울특별시 구로구 신도림로 87 103동 101호(신도림동 동아1차아파트)","02-2689-1342","","","1","61","0","5","0","19","0","37.50775634","126.8805886","미운영","2009-02-16","","","2017-02-28","2021-11-17","일반","0","0","2","0","0","0","4","0","0","6","0","0","0","0","0","0","0","0","0","0","","","","","","","","","","","","","","","","2021-11-17 22:03:55.0"
"구로구","11530000359","보석어린이집","민간","정상","08281","서울특별시 구로구 구로동로47길 21 (구로동)","02-6403-2929","","http://club.cyworld.com/i-gem","4","139","1","9","10","46","44","37.49787984","126.8812303","운영","2009-02-11","","","","2021-11-17","일반","0","0","1","0","0","0","1","2","0","4","0","0","7","0","0","0","5","32","0","44","0","0","0","0","0","1","6","0","0","0","0","0","1","0","10","2021-11-17 22:03:55.0"
"구로구","11530000357","항동발도르프어린이집","가정","정상","08359","서울특별시 구로구 연동로 296-18 105동 102호(항동 유승빌리지)","02-2612-5354","","","3","68","0","0","5","20","16","37.48609807","126.8248257","미운영","2008-08-29","","","","2021-11-17","일반","0","1","1","1","0","0","2","0","0","5","0","0","7","0","0","0","6","0","0","13","0","0","0","0","0","1","3","0","0","0","0","0","0","0","5","2021-11-17 22:03:55.0"
"구로구","11530000358","아람어린이집","가정","정상","08275","서울특별시 구로구 경인로 382 120동 102호(개봉동 한마을아파트)","02-2060-6291","02-6092-0679","","3","82","0","7","7","20","20","37.49532173","126.8625425","미운영","2008-08-28","","","","2021-11-17","일반","2","1","1","0","0","0","4","0","0","8","6","5","6","0","0","0","3","0","0","20","0","0","0","0","0","1","6","0","0","0","0","0","0","0","7","2021-11-17 22:03:55.0"
"구로구","11530000356","아이빌어린이집","민간","정상","08349","서울특별시 구로구 개봉로11길 46-23","02-2616-0025","02-2642-6161","","10","365","5","16","22","137","105","37.48890443","126.8532114","미운영","2008-07-31","","","","2021-11-17","야간연장","0","3","3","3","1","2","0","2","0","14","0","13","19","28","17","28","0","0","0","105","0","0","0","0","0","1","18","0","0","1","0","0","2","0","22","2021-11-17 22:03:55.0"
"구로구","11530000338","자이어린이집","가정","정상","08305","서울특별시 구로구 도림로 107 1동 102호(구로동 럭키아파트)","02-838-2206","","","3","53","0","5","5","16","11","37.491528415825684","126.89365802530638","미운영","2008-07-01","","","","2021-11-17","야간연장","0","1","2","0","0","0","1","0","0","4","0","4","5","0","0","0","2","0","0","11","0","0","0","0","0","1","3","0","0","0","0","0","0","0","5","2021-11-17 22:03:55.0"
"구로구","11530000335","둥이나라어린이집","가정","폐지","08357","서울특별시 구로구 경인로8길 64 108동 102호(오류동 영풍마드레빌아파트)","02-2681-0705","02-2681-0705","","2","48","0","4","0","11","0","37.48894805","126.8253702","미운영","2008-06-09","","","2020-03-01","2021-11-17","일반","2","1","0","0","0","0","0","0","0","3","0","0","0","0","0","0","0","0","0","0","","","","","","","","","","","","","","","","2021-11-17 22:03:55.0"
"구로구","11530000336","경남큰사랑어린이집","가정","폐지","08342","서울특별시 구로구 오류로 65 105동 101호(오류동 경남아너스빌)","02-2066-2081","","","3","63","0","4","0","19","0","37.49266874","126.8271246","미운영","2008-06-05","","","2017-08-31","2021-11-17","일반","2","2","1","0","0","0","1","0","0","6","0","0","0","0","0","0","0","0","0","0","","","","","","","","","","","","","","","","2021-11-17 22:03:54.0"
"구로구","11530000334","아이천국어린이집","가정","정상","08269","서울특별시 구로구 고척로 28 예원빌딩1층 (오류동)","02-2613-2556","0504-153-3741","leesd3737@hanmail.net","3","130","0","4","6","20","20","37.49711283","126.8397346","미운영","2008-06-05","","","","2021-11-17","일반","1","2","1","0","0","0","1","0","0","5","3","10","7","0","0","0","0","0","0","20","0","0","0","0","0","1","4","0","0","0","0","0","0","0","6","2021-11-17 22:03:55.0"
"구로구","11530000333","아기별어린이집","가정","폐지","08319","서울특별시 구로구 구로동로12길 16-4 101호 (구로동)","02-862-8010","","","3","47","0","4","0","13","0","37.48727032","126.8858301","미운영","2008-05-13","","","2019-06-05","2021-11-17","일반","0","0","0","0","0","0","4","0","0","4","0","0","0","0","0","0","0","0","0","0","","","","","","","","","","","","","","","","2021-11-17 22:03:55.0"
"구로구","11530000332","미소어린이집","가정","폐지","08393","서울특별시 구로구 시흥대로161길 50 103동 101호(구로동 신성미소지움아파트)","02-6080-7125","02-6080-7125","misochild101@naver.com","3","76","0","4","0","19","0","37.47929984","126.8965978","미운영","2008-04-30","","","2019-12-01","2021-11-17","야간연장휴일보육","0","2","0","0","0","0","4","0","0","6","0","0","0","0","0","0","0","0","0","0","","","","","","","","","","","","","","","","2021-11-17 22:03:55.0"
"구로구","11530000360","동화","가정","폐지","152765","서울 구로구 구로5동 태영아파트 111-102","02-868-9723","02-838-2759","","1","66","0","0","0","20","0","","","","2008-04-21","","","2008-04-21","2021-11-17","일반","0","0","0","0","0","0","0","0","0","0","0","0","0","0","0","0","0","0","0","0","","","","","","","","","","","","","","","","2021-11-17 22:03:55.0"
"구로구","11530000330","찬명어린이집","민간","폐지","08318","서울특별시 구로구 구로동로15길 3 (구로동 716-13)","02-861-5280","070-7007-2253","","6","200","1","7","0","49","0","37.48775364277916","126.88453627701386","미운영","2008-04-11","","","2020-03-31","2021-11-17","야간연장","1","3","2","0","0","0","1","2","0","9","0","0","0","0","0","0","0","0","0","0","","","","","","","","","","","","","","","","2021-11-17 22:03:55.0"
"구로구","11530000329","고려대학교 구로병원 어린이집","직장","정상","08308","서울특별시 구로구 구로동로28길 33-41","02-2626-1919","02-2626-2442","","4","121","0","13","11","26","19","37.49221157","126.8857284","미운영","2008-04-01","","","","2021-11-17","일반","2","2","2","0","0","0","0","1","0","7","0","7","7","0","0","0","0","5","0","19","0","0","0","0","0","1","7","0","0","0","0","0","1","1","11","2021-11-17 22:03:54.0"
"구로구","11530000327","예빛어린이집","가정","정상","08208","서울특별시 구로구 신도림로 87 신도림동동아1차아파트106동 101호","02-2671-0779","","ysi1234@dreamwiz.com","3","76","0","4","4","19","7","37.51062888","126.8868844","미운영","2008-03-06","","","","2021-11-17","일반","0","1","0","0","0","0","8","0","0","9","0","0","0","0","0","0","7","0","0","7","0","0","0","0","0","1","2","0","0","0","0","0","0","0","4","2021-11-17 22:03:55.0"
"구로구","11530000328","아기세상어린이집","가정","정상","08359","서울특별시 구로구 경인로2길 30 102동 101호(오류동 은하수수목원2차아파트)","02-2060-1343","02-2686-1343","","3","74","0","4","7","18","15","37.48929157","126.8269343","미운영","2008-03-03","","","","2021-11-17","일반","0","0","1","0","0","0","4","0","0","5","0","0","7","0","0","0","8","0","0","15","0","0","0","0","0","1","5","0","0","0","0","0","0","0","7","2021-11-17 22:03:55.0"
"구로구","11530000322","아가랑어린이집","가정","정상","08224","서울특별시 구로구 중앙로5길 62 4동 106호(고척동 서울가든아파트)","02-2613-1187","","","4","55","0","5","6","15","15","37.50274698","126.8605592","미운영","2008-03-03","","","","2021-11-17","일반","1","1","1","0","0","0","1","0","0","4","3","5","5","0","0","0","2","0","0","15","0","0","0","0","0","1","4","0","0","0","0","0","0","0","6","2021-11-17 22:03:55.0"
"구로구","11530000325","신명어린이집","가정","폐지","08354","서울특별시 구로구 개봉로3길 87 103동 104호(개봉동 한진아파트)","02-2616-8683","02-2616-8683","","1","62","0","4","0","19","0","37.4847129","126.8519232","운영","2008-03-01","","","2017-04-24","2021-11-17","일반","4","10","2","0","0","0","16","0","0","32","0","0","0","0","0","0","0","0","0","0","","","","","","","","","","","","","","","","2021-11-17 22:03:55.0"
"구로구","11530000324","예사랑어린이집","가정","정상","08336","서울특별시 구로구 남부순환로95길 88 101동 102호(개봉동 두산아파트)","02-2611-0784","02-2611-0784","","1","52","0","4","7","19","17","37.49495284","126.8526282","미운영","2008-03-01","","","","2021-11-17","일반","2","0","1","0","0","0","2","0","0","5","3","0","7","0","0","0","7","0","0","17","0","0","0","0","0","1","5","0","0","0","0","0","1","0","7","2021-11-17 22:03:55.0"
"구로구","11530000323","낙원브레인키즈어린이집","민간","폐지","08280","서울특별시 구로구 구로동로42길 43 (구로동)","02-868-5579","0504-243-1868","home.kidsnote.com/okine","4","168","0","8","0","39","0","37.49758503","126.8835938","운영","2008-02-29","","","2021-03-31","2021-11-17","일반","0","1","3","0","0","0","3","1","0","8","0","0","0","0","0","0","0","0","0","0","","","","","","","","","","","","","","","","2021-11-17 22:03:54.0"
"구로구","11530000321","예쁜꼬마어린이집","가정","정상","08207","서울특별시 구로구 신도림로 78 309동 101호(신도림동 동아3차아파트)","02-6737-7213","","http://cafe.naver.com/jka7","3","54","0","4","7","17","17","37.50775634","126.8805886","미운영","2008-02-28","","","","2021-11-17","야간연장","1","2","1","0","0","0","1","0","0","5","3","8","4","0","0","0","2","0","0","17","0","0","0","0","0","1","5","0","0","0","0","0","0","0","7","2021-11-17 22:03:55.0"
"구로구","11530000363","J백합어린이집","법인?단체등","폐지","152827","서울 구로구 고척1동 85-14","02-2612-0323","","","1","200","0","0","0","49","0","","","","2008-02-27","","","2010-05-14","2021-11-17","일반","0","0","0","0","0","0","0","0","0","0","0","0","0","0","0","0","0","0","0","0","","","","","","","","","","","","","","","","2021-11-17 22:03:54.0"
"구로구","11530000317","대건어린이집","법인?단체등","정상","08324","서울특별시 구로구 구일로8길 16 (구로동)","02-866-9901","02-866-9902","","5","270","1","8","12","63","61","37.49411718","126.8728978","미운영","2008-02-01","","","","2021-11-17","일반","0","1","2","1","1","1","0","0","0","6","0","5","12","13","15","16","0","0","0","61","0","0","0","0","0","1","9","0","0","0","0","0","1","0","12","2021-11-17 22:03:55.0"
"구로구","11530000316","제이백합어린이집","민간","정상","08227","서울특별시 구로구 경인로43길 22 (고척동)","02-6414-1434","02-6928-7557","montsang@hanmail.net","4","282","0","5","11","49","39","37.49765106","126.8619032","운영","2008-02-01","","","","2021-11-17","일반","1","2","2","0","0","0","6","1","0","12","3","5","13","0","0","0","10","8","0","39","0","0","0","0","0","1","9","0","0","0","0","0","0","0","11","2021-11-17 22:03:55.0"
"구로구","11530000315","토마토어린이집","가정","폐지","08252","서울특별시 구로구 고척로 85 103동 106호(개봉동 거성푸르뫼아파트)","02-2684-1241","02-2682-1142","","4","84","0","4","0","19","0","37.50095969","126.841514","운영","2008-01-29","","","2016-07-01","2021-11-17","야간연장24시간","1","0","1","0","0","0","3","0","0","5","0","0","0","0","0","0","0","0","0","0","","","","","","","","","","","","","","","","2021-11-17 22:03:55.0"
"구로구","11530000314","선애아이어린이집","가정","정상","08311","서울특별시 구로구 구로동로12길 70 101호 (구로동)","02-867-5915","02-867-5915","http//cafe.naver.com/sunai0713","4","37.05","0","4","5","13","10","37.48952504","126.8872022","미운영","2008-01-17","","","","2021-11-17","일반","4","3","1","0","0","0","8","0","0","16","0","0","0","0","0","0","10","0","0","10","0","0","0","0","0","1","3","0","0","0","0","0","0","0","5","2021-11-17 22:03:55.0"
"구로구","11530000313","사랑나무어린이집","가정","폐지","08263","서울특별시 구로구 경인로3길 97 3동 105호(온수동 대흥빌라아파트)","02-2066-3186","000--000","","1","43","0","3","0","10","0","37.4908289","126.8220614","미운영","2008-01-17","","","2020-09-21","2021-11-17","일반","0","0","0","0","0","0","3","0","0","3","0","0","0","0","0","0","0","0","0","0","","","","","","","","","","","","","","","","2021-11-17 22:03:55.0"
"구로구","11530000312","한영어린이집","민간","폐지","08274","서울특별시 구로구 경인로 290-42 한영신학대학교","02-2625-9545","","","10","260","1","8","0","79","0","37.49656430579106","126.85124877091482","운영","2008-01-09","","","2019-02-28","2021-11-17","일반","0","2","3","1","0","0","0","1","0","7","0","0","0","0","0","0","0","0","0","0","","","","","","","","","","","","","","","","2021-11-17 22:03:55.0"
"구로구","11530000311","꿈사랑어린이집","가정","폐지","08276","서울특별시 구로구 경인로40길 11 101동 104호(개봉동 영화아파트)","02-6734-4757","0504-082-4753","","3","51","0","5","0","19","0","37.49599989","126.8598916","미운영","2007-11-30","","","2017-08-31","2021-11-17","야간연장","2","3","1","0","0","0","0","0","0","6","0","0","0","0","0","0","0","0","0","0","","","","","","","","","","","","","","","","2021-11-17 22:03:54.0"
"구로구","11530000310","화목어린이집","가정","정상","08304","서울특별시 구로구 구로중앙로8길 41-20","02-869-3374","","xinpz@naver.com","3","71","1","4","7","20","11","37.49363116","126.8934457","미운영","2007-11-02","","","","2021-11-17","일반","1","0","1","0","0","0","4","0","0","6","2","0","0","0","0","0","9","0","0","11","0","0","0","0","0","1","5","0","0","0","0","0","0","0","7","2021-11-17 22:03:56.0"
"구로구","11530000272","행복한꿈씨어린이집","가정","폐지","08353","서울특별시 구로구 개봉로3가길 29 101호(개웅1길25) (개봉동)","02-2060-0666","02-2060-0666","clup.cyworld.com/happydreamkids","1","40","0","0","0","14","0","37.48491267","126.85403","미운영","2007-10-17","","","2015-05-01","2021-11-17","일반","1","0","0","1","0","0","3","0","0","5","0","0","0","0","0","0","0","0","0","0","","","","","","","","","","","","","","","","2021-11-17 22:03:55.0"
"구로구","11530000084","옹달샘어린이집","가정","폐지","08373","서울특별시 구로구 디지털로27라길 29-8 101호 (구로동)","02-861-1466","02-862-1466","구로구 구로3동 792-50호","1","49","0","4","0","13","0","37.48621854653411","126.88851866089095","미운영","2007-10-01","","","2017-09-07","2021-11-17","일반","1","1","1","0","0","0","3","0","0","6","0","0","0","0","0","0","0","0","0","0","","","","","","","","","","","","","","","","2021-11-17 22:03:55.0"
"구로구","11530000308","키즈극동어린이집","가정","폐지","08312","서울특별시 구로구 구로중앙로7길 28 1동 101호(구로동 극동아파트)","02-6347-5001","02-6091-7725","www.cyworld.com/kids0","1","60","0","5","0","19","0","37.49094962","126.8897921","미운영","2007-09-03","","","2017-08-31","2021-11-17","일반","2","2","1","0","0","0","0","0","0","5","0","0","0","0","0","0","0","0","0","0","","","","","","","","","","","","","","","","2021-11-17 22:03:55.0"
"구로구","11530000284","바다어린이집","가정","정상","08324","서울특별시 구로구 구일로4길 65 104동 103호(구로동 구로주공아파트)","02-857-5488","02-857-5488","","3","45","0","3","7","17","16","37.49299645","126.8752781","미운영","2007-09-01","","","","2021-11-17","일반","2","1","0","0","0","0","2","0","0","5","5","5","0","0","0","0","6","0","0","16","0","0","0","0","0","1","5","0","0","0","0","0","0","0","7","2021-11-17 22:03:55.0"
"구로구","11530000307","도담어린이집","민간","폐지","08349","서울특별시 구로구 개봉로11나길 3 (개봉동)","02-2619-0505","02-2613-1199","","5","191","0","9","0","44","0","37.48901105","126.8525924","운영","2007-06-26","","","2019-07-31","2021-11-17","일반","0","1","2","0","0","0","1","1","0","5","0","0","0","0","0","0","0","0","0","0","","","","","","","","","","","","","","","","2021-11-17 22:03:55.0"
"구로구","11530000309","대상어린이집","가정","폐지","152093","서울 구로구 개봉3동 477번지 대상아파트 102동 102호","02-2611-5004","","","0","0","0","0","0","19","0","","","","2007-06-05","","","2009-02-27","2021-11-17","일반","0","0","0","0","0","0","0","0","0","0","0","0","0","0","0","0","0","0","0","0","","","","","","","","","","","","","","","","2021-11-17 22:03:55.0"
"구로구","11530000305","아띠어린이집","가정","폐지","08337","서울특별시 구로구 개봉로17라길 32 (개봉동)","02-2617-5156","02-2617-5156","","3","49","0","4","0","17","0","37.492880481445916","126.85372571775386","미운영","2007-06-01","","","2020-03-01","2021-11-17","야간연장","0","1","0","0","0","0","3","0","0","4","0","0","0","0","0","0","0","0","0","0","","","","","","","","","","","","","","","","2021-11-17 22:03:55.0"
"구로구","11530000306","또래친구어린이집","민간","정상","08249","서울특별시 구로구 오리로20길 39 (1~3층)","02-3666-3434","02-3666-3434","","12","131","2","20","16","81","63","37.49757194","126.8308285","미운영","2007-05-28","","","","2021-11-17","야간연장","2","4","3","2","1","1","1","1","0","15","5","5","16","14","13","10","0","0","0","63","0","0","0","0","0","1","13","0","0","0","0","0","2","0","16","2021-11-17 22:03:55.0"
"구로구","11530000304","큰별어린이집","가정","정상","08314","서울특별시 구로구 구로동로22길 88-1 101호.102호","02-868-3531","02-868-1607","다음 -카페-구로큰별어린이집","3","51","1","5","7","15","13","37.48800698","126.8885624","미운영","2007-05-22","","","","2021-11-17","야간연장휴일보육","2","0","1","0","0","0","4","0","0","7","5","0","0","0","0","0","8","0","0","13","0","0","0","0","0","1","5","0","0","0","0","0","0","0","7","2021-11-17 22:03:55.0"
"구로구","11530000303","도현어린이집","민간","폐지","152854","서울 구로구 구로2동 429-116 (1층)","02-864-0246","02-854-1957","","3","117","0","0","0","27","0","37.49096489","126.8872012","미운영","2007-05-16","","","2016-08-31","2021-11-17","일반","3","4","3","1","0","0","4","0","0","15","0","0","0","0","0","0","0","0","0","0","","","","","","","","","","","","","","","","2021-11-17 22:03:55.0"
"구로구","11530000301","사랑어린이집","민간","휴지","08205","서울특별시 구로구 신도림로11가길 36 미성아파트 관리실 1층(신도림동)","02-2637-6446","","","5","154","0","0","0","36","0","37.50827362315886","126.87610798295601","","2007-04-25","2010-10-18","2011-10-17","","2021-11-17","일반","0","0","1","1","0","0","0","1","0","3","0","0","0","0","0","0","0","0","0","0","","","","","","","","","","","","","","","","2021-11-17 22:03:55.0"
"구로구","11530000302","백호어린이집","가정","정상","08203","서울특별시 구로구 신도림로9길 24 (신도림동)","02-2676-3569","02-2678-3569","","2","59","0","3","6","20","9","37.50892591","126.8800203","운영","2007-04-16","","","","2021-11-17","일반","1","1","1","0","0","0","3","0","0","6","3","0","0","0","0","0","6","0","0","9","0","0","0","0","0","1","4","0","0","0","0","0","0","0","6","2021-11-17 22:03:55.0"
"구로구","11530000300","아기천사어린이집","가정","정상","08358","서울특별시 구로구 오리로 1197 114동 101호(오류동 금강수목원아파트)","02-2687-2228","","","3","51","0","4","5","19","8","37.48824319","126.8323433","미운영","2007-04-05","","","","2021-11-17","야간연장","3","1","1","0","0","0","3","0","0","8","3","0","0","0","0","0","5","0","0","8","0","0","0","0","0","1","3","0","0","0","0","0","0","0","5","2021-11-17 22:03:55.0"
"구로구","11530000298","위브어린이집","민간","정상","08375","서울특별시 구로구 디지털로31길 85 두산위브아파트 내 보육시설 (구로동)","02-864-9191","","","3","120","3","4","8","25","22","37.48597272","126.890223","미운영","2007-03-30","","","","2021-11-17","일반","1","2","1","0","0","0","2","0","0","6","0","10","6","0","0","0","6","0","0","22","0","0","0","0","0","1","6","0","0","0","0","0","0","0","8","2021-11-17 22:03:55.0"
"구로구","11530000297","엔젤어린이집","가정","폐지","08371","서울특별시 구로구 디지털로31길 90 108동 103호(구로동 삼성래미안아파트)","02-838-6157","02-838-6157","jaegielee@hanmail.net","3","86","0","8","0","20","0","37.4887518404","126.8920337159","미운영","2007-03-02","","","2020-03-31","2021-11-17","일반","1","1","1","0","0","0","2","0","0","5","0","0","0","0","0","0","0","0","0","0","","","","","","","","","","","","","","","","2021-11-17 22:03:55.0"
"구로구","11530000296","성능어린이집","가정","폐지","152896","서울 구로구 오류2동 145-50","010-2871-0688","","","0","0","0","0","1","8","0","","","","2007-01-23","","","2008-11-06","2021-11-17","일반","0","0","0","0","0","0","0","0","0","0","0","0","0","0","0","0","0","0","0","0","0","0","0","0","0","0","1","0","0","0","0","0","0","0","1","2021-11-17 22:03:55.0"
"구로구","11530000280","밝은마음어린이집","민간","정상","08238","서울특별시 구로구 경인로35길 71 (고척동2773-59 1층 일부)","02-2616-2555","0504-247-9615","cafe.naver.com/0226162555","3","171","0","4","5","25","12","37.50392273","126.8530078","미운영","2006-11-24","","","","2021-11-17","야간연장","0","0","0","0","0","0","2","1","0","3","0","0","0","0","0","0","4","8","0","12","0","0","0","0","0","1","3","0","0","0","0","0","0","0","5","2021-11-17 22:03:55.0"
"구로구","11530000274","아이파크어린이집","가정","폐지","152092","서울 구로구 개봉2동 489번지 개봉아이파크 105동 101호","02-2685-7005","02-2685-7033","","0","0","0","0","0","18","0","","","","2006-11-14","","","2009-07-30","2021-11-17","일반","0","0","0","0","0","0","0","0","0","0","0","0","0","0","0","0","0","0","0","0","","","","","","","","","","","","","","","","2021-11-17 22:03:55.0"
"구로구","11530000286","잼나어린이집","가정","폐지","08281","서울특별시 구로구 벚꽃로78길 28-13 102호 (구로동 동남베스트빌)","02-857-8867","","","4","53","0","6","0","16","0","37.48917513","126.881921","운영","2006-10-27","","","2020-04-17","2021-11-17","야간연장","0","2","1","0","0","0","9","1","0","13","0","0","0","0","0","0","0","0","0","0","","","","","","","","","","","","","","","","2021-11-17 22:03:55.0"
"구로구","11530000270","상은어린이집","가정","정상","08373","서울특별시 구로구 도림로12길 12 101호 (구로동)","02-3281-9687","02-865-9687","junghee0505@.hanmail.net","2","33","0","3","2","10","3","37.48670983","126.8886958","미운영","2006-10-26","","","","2021-11-17","일반","1","1","0","0","0","0","5","0","0","7","0","0","0","0","0","0","3","0","0","3","0","0","0","0","0","1","1","0","0","0","0","0","0","0","2","2021-11-17 22:03:55.0"
"구로구","11530000273","아이꿈어린이집","가정","정상","08253","서울특별시 구로구 고척로 49 206동 104호(오류동 동부골든아파트)","02-2684-4722","02-2684-4722","","3","55","0","4","7","19","19","37.49927744","126.8395847","미운영","2006-10-16","","","","2021-11-17","야간연장","1","2","1","0","0","0","0","0","0","4","3","10","6","0","0","0","0","0","0","19","0","0","0","0","0","1","5","0","0","0","0","0","0","0","7","2021-11-17 22:03:55.0"
"구로구","11530000271","사랑모아어린이집","가정","정상","08327","서울특별시 구로구 가마산로 87 103동 101호(한일유앤아이아파트)","02-866-6675","02-866-6675","","3","60","0","4","4","19","8","37.4858494383","126.876158591","미운영","2006-10-02","","","","2021-11-17","야간연장","2","2","2","0","0","0","4","0","0","10","0","0","0","0","0","0","8","0","0","8","0","0","0","0","0","1","2","0","0","0","0","0","0","0","4","2021-11-17 22:03:55.0"
"구로구","11530000255","개봉사랑나무어린이집","가정","정상","08331","서울특별시 구로구 개봉로2길 133-15 110동 102호(개봉동 개봉동아이파크아파트)","02-2685-5146","02-2685-5146","","3","52","0","4","7","19","19","37.489503983545056","126.86006895236001","미운영","2006-09-19","","","","2021-11-17","일반","3","1","1","0","0","0","0","0","0","5","8","5","6","0","0","0","0","0","0","19","0","0","0","0","0","1","5","0","0","0","0","0","0","0","7","2021-11-17 22:03:54.0"
"구로구","11530000290","뽀뽀어린이집","가정","정상","08211","서울특별시 구로구 신도림로 16 504동 103호(신도림동 대림1차아파트)","02-2676-4875","02-2676-4875","","2","60","0","3","6","13","13","37.50580136","126.8807117","미운영","2006-09-12","","","","2021-11-17","야간연장","2","2","2","0","0","0","4","0","0","10","3","0","7","0","0","0","3","0","0","13","0","0","0","0","0","1","4","0","0","0","0","0","0","0","6","2021-11-17 22:03:55.0"
"구로구","11530000206","호암어린이집","가정","폐지","08348","서울특별시 구로구 개봉로11길 28-31","02-2617-2942","02-2617-2942","","1","52","0","4","0","20","0","37.4894735","126.8541006","미운영","2006-09-06","","","2018-10-31","2021-11-17","야간연장","2","0","1","0","0","0","5","2","0","10","0","0","0","0","0","0","0","0","0","0","","","","","","","","","","","","","","","","2021-11-17 22:03:56.0"
"구로구","11530000248","청소년수련관방과후교실어린이집","국공립","폐지","08309","서울특별시 구로구 구로동로 141 (구로동)","02-838-1318","02-838-8559","www.guro1318.org","1","80","0","0","0","20","0","37.49129492","126.883312","미운영","2006-08-01","","","2013-01-01","2021-11-17","방과후 전담","0","0","0","0","0","0","0","0","0","0","0","0","0","0","0","0","0","0","0","0","","","","","","","","","","","","","","","","2021-11-17 22:03:55.0"
"구로구","11530000250","한일어린이집","가정","폐지","152051","서울 구로구 구로1동 한일유앤아이아파트106동101호","02-862-5350","","","0","0","0","0","0","18","0","","","","2006-07-24","","","2008-04-28","2021-11-17","일반","0","0","0","0","0","0","0","0","0","0","0","0","0","0","0","0","0","0","0","0","","","","","","","","","","","","","","","","2021-11-17 22:03:55.0"
"구로구","11530000195","훼미리어린이집","가정","폐지","08329","서울특별시 구로구 개봉로20길 6 118동 102호(개봉동 현대아파트)","02-6095-5915","02-6095-5915","","3","61","0","4","0","20","0","37.49200508","126.8585331","미운영","2006-07-18","","","2018-08-31","2021-11-17","일반","1","2","1","0","0","0","2","0","0","6","0","0","0","0","0","0","0","0","0","0","","","","","","","","","","","","","","","","2021-11-17 22:03:56.0"
"구로구","11530000161","붕붕어린이집","민간","정상","08245","서울특별시 구로구 고척로33길 47 금강주택101호 (고척동)","02-2689-9932","02-2619-9965","","5","130","0","2","7","30","14","37.50459392","126.8480912","미운영","2006-07-03","","","","2021-11-17","일반","0","3","0","0","0","0","3","0","0","6","0","5","0","0","0","0","9","0","0","14","0","0","0","0","0","1","5","0","0","0","0","0","0","0","7","2021-11-17 22:03:55.0"
"구로구","11530000026","늘푸른솔어린이집","가정","폐지","08229","서울특별시 구로구 고척로52가길 81 라이프주택 101호 (고척동)","02-2066-2792","","","1","60","0","4","0","16","0","37.50275839","126.8519659","미운영","2006-03-22","","","2018-08-27","2021-11-17","야간연장","1","2","0","0","0","0","6","0","0","9","0","0","0","0","0","0","0","0","0","0","","","","","","","","","","","","","","","","2021-11-17 22:03:54.0"
"구로구","11530000140","유앤아이사랑어린이집","가정","정상","08239","서울특별시 구로구 중앙로15길 151 103동 101호(고척동 한일유앤아이아파트)","02-2060-9364","02-2060-9364","","3","65","0","4","6","20","17","37.50793177","126.8512804","미운영","2006-03-10","","","","2021-11-17","일반","0","1","1","1","0","0","6","0","0","9","0","0","6","0","0","0","11","0","0","17","0","0","0","0","0","1","4","0","0","0","0","0","0","0","6","2021-11-17 22:03:55.0"
"구로구","11530000217","우림어린이집","민간","정상","08340","서울특별시 구로구 서해안로 2368 우림필유상가동 (오류동)","02-2687-6187","02-2618-6186","","3","164","0","6","4","39","14","37.49394781","126.8468525","미운영","2006-02-25","","","","2021-11-17","야간연장","1","1","2","1","0","0","1","1","0","7","0","0","14","0","0","0","0","0","0","14","0","0","0","0","0","1","3","0","0","0","0","0","0","0","4","2021-11-17 22:03:55.0"
"구로구","11530000242","리틀아이어린이집","가정","폐지","08312","서울특별시 구로구 구로중앙로7길 28 2동 106호(구로동 극동아파트)","02-859-6001","02-867-4649","","4","67","0","5","0","19","0","37.49061395","126.8889738","미운영","2006-02-24","","","2020-07-28","2021-11-17","야간연장","0","0","2","0","0","0","5","0","0","7","0","0","0","0","0","0","0","0","0","0","","","","","","","","","","","","","","","","2021-11-17 22:03:55.0"
"구로구","11530000260","한신타운어린이집","가정","정상","08269","서울특별시 구로구 고척로 52 102동 104호(오류동 한신아파트)","02-6347-7979","02-6347-7979","팩스 : 02-6347-7979","1","50","0","4","7","19","18","37.49833575","126.8409495","미운영","2006-02-13","","","","2021-11-17","일반","1","0","1","0","0","0","2","0","0","4","3","0","7","0","0","0","8","0","0","18","0","0","0","0","0","1","5","0","0","0","0","0","0","0","7","2021-11-17 22:03:55.0"
"구로구","11530000025","세라핌어린이집","민간","정상","08267","서울특별시 구로구 고척로18길 92 오류동감리교회 세라핌어린이집 (오류동)","02-2612-6501","02-2612-6522","","6","242","2","10","12","74","71","37.4977179309388","126.84502816205794","운영","2006-02-08","","","","2021-11-17","일반","0","0","2","2","1","1","0","0","0","6","0","0","14","23","15","19","0","0","0","71","0","0","0","0","0","1","8","0","0","0","0","0","1","1","12","2021-11-17 22:03:55.0"
"구로구","11530000136","현경어린이집","민간","정상","08249","서울특별시 구로구 부일로11길 105 (궁동)","02-2617-4345","","","6","300","1","7","12","66","46","37.49756341","126.8296028","미운영","2006-02-06","","","","2021-11-17","야간연장","2","1","2","1","0","0","1","1","0","8","6","5","7","12","0","0","4","12","0","46","0","0","0","0","0","1","9","0","0","0","0","0","1","0","12","2021-11-17 22:03:56.0"
"구로구","11530000184","하늘샘어린이집","민간","폐지","08332","서울특별시 구로구 개봉로18길 17 (개봉동)","02-2615-8825","02-6405-8825","","7","222","1","8","0","52","0","37.49140991","126.8569919","미운영","2006-02-01","","","2019-02-28","2021-11-17","일반","0","2","4","1","0","0","0","0","0","7","0","0","0","0","0","0","0","0","0","0","","","","","","","","","","","","","","","","2021-11-17 22:03:55.0"
"구로구","11530000010","아이꿈터어린이집","가정","정상","08218","서울특별시 구로구 중앙로12길 12 102동 103호(고척동 센츄리아파트)","02-6406-1770","02-6406-1770","","3","109","0","4","5","19","9","37.5044855","126.8621919","미운영","2006-01-26","","","","2021-11-17","야간연장","2","1","1","0","0","0","3","0","0","7","2","0","0","0","0","0","7","0","0","9","0","0","0","0","0","1","3","0","0","0","0","0","0","0","5","2021-11-17 22:03:55.0"
"구로구","11530000063","편한어린이집","가정","폐지","152872","서울 구로구 구로4동 739-48","02-851-8180","","","0","0","0","0","1","6","0","","","","2006-01-20","","","2008-03-24","2021-11-17","일반","0","0","0","0","0","0","0","0","0","0","0","0","0","0","0","0","0","0","0","0","0","0","0","0","0","1","0","0","0","0","0","0","0","0","1","2021-11-17 22:03:55.0"
"구로구","11530000055","꼬마숲예지어린이집","가정","폐지","08306","서울특별시 구로구 가마산로20다길 41 가동 101호(구로동 골드마인아파트)","02-858-3676","02-862-3676","","3","56","0","4","0","16","0","37.49279215","126.8885356","미운영","2005-12-06","","","2021-03-31","2021-11-17","일반","0","1","1","0","0","0","5","0","0","7","0","0","0","0","0","0","0","0","0","0","","","","","","","","","","","","","","","","2021-11-17 22:03:54.0"
"구로구","11530000276","예꿈어린이집","가정","폐지","08329","서울특별시 구로구 개봉로20길 6 102동 102호(개봉동 현대아파트)","02-2066-2004","","","3","78","0","5","0","20","0","37.49200508","126.8585331","미운영","2005-12-03","","","2020-12-15","2021-11-17","일반","2","2","1","0","0","0","4","0","0","9","0","0","0","0","0","0","0","0","0","0","","","","","","","","","","","","","","","","2021-11-17 22:03:55.0"
"구로구","11530000054","자연어린이집","민간","폐지","08246","서울특별시 구로구 고척로33길 20 (고척동)","02-2689-3060","02-2689-3060","","4","190","0","4","0","29","0","37.50353991","126.8488516","운영","2005-11-30","","","2020-02-29","2021-11-17","야간연장","0","1","0","0","0","0","1","1","0","3","0","0","0","0","0","0","0","0","0","0","","","","","","","","","","","","","","","","2021-11-17 22:03:55.0"
"구로구","11530000099","큰사랑한신어린이집","가정","폐지","08323","서울특별시 구로구 구일로8길 63 1동 111호(구로동 한신1차아파트)","02-858-3605","02-858-3605","","4","516","0","4","0","13","0","37.49303544","126.8756823","미운영","2005-11-25","","","2020-02-05","2021-11-17","일반","1","1","1","0","0","0","6","0","0","9","0","0","0","0","0","0","0","0","0","0","","","","","","","","","","","","","","","","2021-11-17 22:03:55.0"
"구로구","11530000015","별나라어린이집","가정","정상","08205","서울특별시 구로구 신도림로11가길 36 5동 101호(신도림동 미성아파트)","02-2068-9993","02-2068-9993","","3","55","0","5","7","19","19","37.50827362315886","126.87610798295601","미운영","2005-11-15","","","","2021-11-17","야간연장","1","2","1","0","0","0","3","0","0","7","3","5","5","0","0","0","6","0","0","19","0","0","0","0","0","1","5","0","0","0","0","0","0","0","7","2021-11-17 22:03:55.0"
"구로구","11530000178","아기수잔나어린이집","가정","폐지","08239","서울특별시 구로구 고척로51길 58 고척동","02-2615-1225","","","2","34","0","4","0","12","0","37.506971885392176","126.85346750318834","미운영","2005-11-01","","","2017-02-28","2021-11-17","일반","0","1","0","1","0","0","2","0","0","4","0","0","0","0","0","0","0","0","0","0","","","","","","","","","","","","","","","","2021-11-17 22:03:55.0"
"구로구","11530000092","꿈이있는 방과후교실어린이집","국공립","폐지","08281","서울특별시 구로구 벚꽃로 484 화원종합사회복지관내 (구로동)","02-6925-5290","02-837-0787","www.hwawon.org","2","149","1","2","0","40","0","37.4973289","126.8801416","미운영","2005-10-25","","","2019-12-31","2021-11-17","방과후 전담","0","0","0","0","0","0","0","0","0","0","0","0","0","0","0","0","0","0","0","0","","","","","","","","","","","","","","","","2021-11-17 22:03:54.0"
"구로구","11530000059","장미어린이집","민간","정상","08226","서울특별시 구로구 경인로 343 삼환로즈빌아파트 단지 내 1층 장미 어린이집 (고척동)","02-2060-0406","02-2060-0406","http://cafe.naver.com/babyrose","4","117","1","5","7","28","22","37.49784956","126.8579172","미운영","2005-09-22","","","","2021-11-17","일반","1","1","1","0","0","0","1","1","0","5","3","5","6","0","0","0","3","5","0","22","0","0","0","0","0","1","5","0","0","0","0","0","0","0","7","2021-11-17 22:03:55.0"
"구로구","11530000198","선애어린이집","가정","폐지","08311","서울특별시 구로구 구로동로12길 70 (구로동)","02-864-8212","02-863-8212","gydls6355@naver.com","4","37","0","4","0","13","0","37.48975064","126.888004","미운영","2005-09-20","","","2020-03-26","2021-11-17","일반","1","1","1","0","0","0","3","0","0","6","0","0","0","0","0","0","0","0","0","0","","","","","","","","","","","","","","","","2021-11-17 22:03:55.0"
"구로구","11530000012","꿈이있는어린이집","국공립","정상","08281","서울특별시 구로구 벚꽃로 484 화원사회종합복지관내 (구로동)","02-863-0106","02-863-0170","http://kids.guro.kr","5","335","1","8","12","74","69","37.4973289","126.8801416","미운영","2005-09-01","","","","2021-11-17","야간연장","0","1","2","1","0","0","0","2","0","6","0","5","14","15","0","0","0","35","0","69","0","0","0","0","0","1","9","0","0","0","0","0","1","0","12","2021-11-17 22:03:54.0"
"구로구","11530000230","행복나무어린이집","민간","폐지","08291","서울특별시 구로구 새말로9길 40 (1층 구로동)","02-865-0509","","","7","430","1","11","0","84","0","37.50430213","126.8864423","운영","2005-05-16","","","2018-02-28","2021-11-17","야간연장","0","3","4","2","1","0","2","1","0","13","0","0","0","0","0","0","0","0","0","0","","","","","","","","","","","","","","","","2021-11-17 22:03:55.0"
"구로구","11530000101","한울어린이집","가정","폐지","08314","서울특별시 구로구 구로동로8길 70-11","02-6053-1243","02-6053-1243","","2","43","0","0","0","10","0","37.48871582","126.8879582","미운영","2005-05-14","","","2015-05-14","2021-11-17","일반","0","0","0","0","0","0","2","0","0","2","0","0","0","0","0","0","0","0","0","0","","","","","","","","","","","","","","","","2021-11-17 22:03:55.0"
"구로구","11530000199","큰지혜어린이집","가정","폐지","152894","서울 구로구 오류1동 81-129","019-311-1557","02-2684-2365","","0","0","0","0","0","15","0","","","","2005-04-28","","","","2021-11-17","일반","0","0","0","0","0","0","0","0","0","0","0","0","0","0","0","0","0","0","0","0","","","","","","","","","","","","","","","","2021-11-17 22:03:55.0"
"구로구","11530000079","코레일오류동어린이집","직장","정상","08272","서울특별시 구로구 경인로20가길 24 오류동 행복주택 내 직장어린이집","02-2612-2762","02-2615-2762","https://www.puruni.com/korail","7","715","2","38","22","128","60","37.49544261","126.8448222","미운영","2005-04-07","","","","2021-11-17","야간연장","0","4","4","2","1","2","0","0","0","13","0","12","15","13","6","14","0","0","0","60","1","0","0","0","0","1","17","0","0","1","0","0","2","0","22","2021-11-17 22:03:55.0"
